{"success":true,"result":{"resource_id":"A01010000C-000674-011","limit":2000,"total":2000,"fields":[{"type":"text","id":"CityName"},{"type":"text","id":"RegionName"},{"type":"text","id":"Address"},{"type":"text","id":"DeptNm"},{"type":"text","id":"BranchNm"},{"type":"text","id":"Longitude"},{"type":"text","id":"Latitude"},{"type":"text","id":"direct"},{"type":"text","id":"limit"}],"records":[{"CityName":"設置縣市","RegionName":"設置市區鄉鎮","Address":"設置地址","DeptNm":"管轄警局","BranchNm":"管轄分局","Longitude":"經度","Latitude":"緯度","direct":"拍攝方向","limit":"速限"},{"CityName":"","RegionName":"","Address":"永靖鄉東彰路7段與湳底路口","DeptNm":"彰化縣警察局","BranchNm":"員林分局","Longitude":"120.5705","Latitude":"23.911493","direct":"往南","limit":"70"},{"CityName":"連江縣","RegionName":"南竿鄉","Address":"介壽村47-10號前","DeptNm":"連江縣警察局","BranchNm":"南竿警察所","Longitude":"119.95137","Latitude":"26.160198","direct":"順向(往介壽村方向)","limit":"30"},{"CityName":"連江縣","RegionName":"北竿鄉","Address":"塘岐村168號前","DeptNm":"連江縣警察局","BranchNm":"北竿警察所","Longitude":"119.99763","Latitude":"26.223022","direct":"順向(往機場方向)","limit":"30"},{"CityName":"連江縣","RegionName":"北竿鄉","Address":"板里村46號前","DeptNm":"連江縣警察局","BranchNm":"北竿警察所","Longitude":"119.97415","Latitude":"26.216692","direct":"順向(往白沙方向)","limit":"30"},{"CityName":"金門縣","RegionName":"金城鎮","Address":"西海路水頭路段","DeptNm":"金門縣警察局","BranchNm":"金城分局","Longitude":"118.29999","Latitude":"24.411718","direct":"東西雙向","limit":"50"},{"CityName":"金門縣","RegionName":"福建省金門縣金城鎮","Address":"西海路金城消防分隊路段","DeptNm":"金門縣警察局","BranchNm":"金城分局","Longitude":"118.31096","Latitude":"24.419662","direct":"南北雙向","limit":"50"},{"CityName":"金門縣","RegionName":"金城鎮","Address":"西海路空中大學路段(空中大學附近)","DeptNm":"金門縣警察局","BranchNm":"金城分局","Longitude":"118.31264","Latitude":"24.422647","direct":"東西雙向","limit":"50"},{"CityName":"金門縣","RegionName":"金城鎮","Address":"環島南路小西門路段","DeptNm":"金門縣警察局","BranchNm":"金城分局","Longitude":"118.32414","Latitude":"24.413134","direct":"東西雙向","limit":"60"},{"CityName":"金門縣","RegionName":"金沙鎮","Address":"環島北路4段洋山路段(警光會館附近)","DeptNm":"金門縣警察局","BranchNm":"金湖分局","Longitude":"118.40696","Latitude":"24.486645","direct":"東西雙向","limit":"60"},{"CityName":"金門縣","RegionName":"金沙鎮","Address":"高陽路蔡厝路段","DeptNm":"金門縣警察局","BranchNm":"金湖分局","Longitude":"118.419556","Latitude":"24.47699","direct":"東西雙向","limit":"60"},{"CityName":"金門縣","RegionName":"金湖鎮","Address":"環島南路環保公園路段(環保局附近)","DeptNm":"金門縣警察局","BranchNm":"金湖分局","Longitude":"118.370316","Latitude":"24.44133","direct":"東西雙向","limit":"60"},{"CityName":"金門縣","RegionName":"福建省金門縣金湖鎮","Address":"瓊徑路小徑路段(小徑茶室附近)","DeptNm":"金門縣警察局","BranchNm":"金湖分局","Longitude":"118.38353","Latitude":"24.449205","direct":"南北雙向","limit":"50"},{"CityName":"金門縣","RegionName":"金湖鎮","Address":"環島南路后園路段(168加油站附近)","DeptNm":"金門縣警察局","BranchNm":"金湖分局","Longitude":"118.4034","Latitude":"24.437878","direct":"東西雙向","limit":"50"},{"CityName":"金門縣","RegionName":"福建省金門縣金湖鎮","Address":"太湖路鑑潭山莊路段(鑑潭山莊附近)","DeptNm":"金門縣警察局","BranchNm":"金湖分局","Longitude":"118.40811","Latitude":"24.44457","direct":"東西雙向","limit":"50"},{"CityName":"金門縣","RegionName":"金湖鎮","Address":"黃海路監理站路段","DeptNm":"金門縣警察局","BranchNm":"金湖分局","Longitude":"118.41738","Latitude":"24.446644","direct":"南北雙向","limit":"50"},{"CityName":"金門縣","RegionName":"金湖鎮","Address":"金港路料羅路段","DeptNm":"金門縣警察局","BranchNm":"金湖分局","Longitude":"118.43421","Latitude":"24.419786","direct":"南北雙向","limit":"50"},{"CityName":"金門縣","RegionName":"金寧鄉","Address":"慈湖路湖下路段","DeptNm":"金門縣警察局","BranchNm":"金城分局","Longitude":"118.309654","Latitude":"24.449041","direct":"南北雙向","limit":"50"},{"CityName":"金門縣","RegionName":"金寧鄉","Address":"環島北路鎮西路段","DeptNm":"金門縣警察局","BranchNm":"金城分局","Longitude":"118.33072","Latitude":"24.448359","direct":"東西雙向","limit":"60"},{"CityName":"金門縣","RegionName":"金寧鄉","Address":"環島南路后湖路段","DeptNm":"金門縣警察局","BranchNm":"金城分局","Longitude":"118.3318","Latitude":"24.416346","direct":"東西雙向","limit":"60"},{"CityName":"金門縣","RegionName":"金寧鄉","Address":"桃園路金寧加油站路段(金寧加油站附近)","DeptNm":"金門縣警察局","BranchNm":"金城分局","Longitude":"118.337685","Latitude":"24.430235","direct":"東西雙向","limit":"60"},{"CityName":"金門縣","RegionName":"金寧鄉","Address":"環島北路頂堡路段(環北頂林路口附近)","DeptNm":"金門縣警察局","BranchNm":"金城分局","Longitude":"118.33837","Latitude":"24.44981","direct":"東西雙向","limit":"60"},{"CityName":"金門縣","RegionName":"金寧鄉","Address":"伯玉路盤果路口","DeptNm":"金門縣警察局","BranchNm":"金城分局","Longitude":"118.340614","Latitude":"24.441227","direct":"東往西向","limit":"70"},{"CityName":"金門縣","RegionName":"金寧鄉","Address":"環島南路中心教練場路段(中心教練場附近)","DeptNm":"金門縣警察局","BranchNm":"金城分局","Longitude":"118.34236","Latitude":"24.4258","direct":"東西雙向","limit":"60"},{"CityName":"金門縣","RegionName":"金寧鄉","Address":"桃園路雙乳山路段","DeptNm":"金門縣警察局","BranchNm":"金城分局","Longitude":"118.35565","Latitude":"24.436016","direct":"東西雙向","limit":"60"},{"CityName":"金門縣","RegionName":"金寧鄉","Address":"環島北路后盤山路段","DeptNm":"金門縣警察局","BranchNm":"金城分局","Longitude":"118.35793","Latitude":"24.453362","direct":"東西雙向","limit":"60"},{"CityName":"金門縣","RegionName":"金湖鎮","Address":"黃海路陽明湖路段(陽明營區附近)","DeptNm":"金門縣警察局","BranchNm":"金湖分局","Longitude":"118.43147","Latitude":"24.458809","direct":"南北雙向","limit":"60"},{"CityName":"宜蘭縣","RegionName":"宜蘭市","Address":"宜興橋南端(往羅東)+50m南下","DeptNm":"宜蘭縣政府警察局","BranchNm":"宜蘭分局","Longitude":"121.75987","Latitude":"24.760712","direct":"北向南","limit":"50"},{"CityName":"宜蘭縣","RegionName":"宜蘭市","Address":"中山路1段560號前北上","DeptNm":"宜蘭縣政府警察局","BranchNm":"宜蘭分局","Longitude":"121.76105","Latitude":"24.738028","direct":"南向北","limit":"60"},{"CityName":"宜蘭縣","RegionName":"宜蘭市","Address":"宜16線5.5K南津路東向","DeptNm":"宜蘭縣政府警察局","BranchNm":"宜蘭分局","Longitude":"121.76466","Latitude":"24.71843","direct":"東西雙向","limit":"50"},{"CityName":"宜蘭縣","RegionName":"宜蘭市","Address":"宜16線5.5K南津路東向","DeptNm":"宜蘭縣政府警察局","BranchNm":"宜蘭分局","Longitude":"121.76525","Latitude":"24.718306","direct":"東西雙向","limit":"50"},{"CityName":"宜蘭縣","RegionName":"宜蘭市","Address":"台9線79k+550m環市東路與192甲線路口北上","DeptNm":"宜蘭縣政府警察局","BranchNm":"宜蘭分局","Longitude":"121.770744","Latitude":"24.767035","direct":"南向北","limit":"70"},{"CityName":"宜蘭縣","RegionName":"宜蘭市","Address":"台9線80k+700m環市東路黎霧橋南端南下","DeptNm":"宜蘭縣政府警察局","BranchNm":"宜蘭分局","Longitude":"121.771355","Latitude":"24.756819","direct":"北向南","limit":"70"},{"CityName":"宜蘭縣","RegionName":"宜蘭市","Address":"台9線81k+650m環市東路北上","DeptNm":"宜蘭縣政府警察局","BranchNm":"宜蘭分局","Longitude":"121.77159","Latitude":"24.748297","direct":"南向北","limit":"70"},{"CityName":"宜蘭縣","RegionName":"宜蘭市","Address":"191線與宜14線路口北上","DeptNm":"宜蘭縣政府警察局","BranchNm":"宜蘭分局","Longitude":"121.78176","Latitude":"24.744093","direct":"南向北","limit":"60"},{"CityName":"宜蘭縣","RegionName":"羅東鎮","Address":"公正路324號西向","DeptNm":"宜蘭縣政府警察局","BranchNm":"羅東分局","Longitude":"121.76142","Latitude":"24.68059","direct":"東向西","limit":"40"},{"CityName":"宜蘭縣","RegionName":"蘇澳鎮","Address":"台9線100k+242m新城段北上","DeptNm":"宜蘭縣政府警察局","BranchNm":"蘇澳分局","Longitude":"121.821266","Latitude":"24.615463","direct":"南北雙向","limit":"60"},{"CityName":"宜蘭縣","RegionName":"蘇澳鎮","Address":"台9線117k+772m新澳隧道北上","DeptNm":"宜蘭縣政府警察局","BranchNm":"蘇澳分局","Longitude":"121.83023","Latitude":"24.490236","direct":"南向北","limit":"40"},{"CityName":"宜蘭縣","RegionName":"蘇澳鎮","Address":"台9線102k+200m聖湖段南下","DeptNm":"宜蘭縣政府警察局","BranchNm":"蘇澳分局","Longitude":"121.83417","Latitude":"24.60313","direct":"南北雙向","limit":"60"},{"CityName":"宜蘭縣","RegionName":"蘇澳鎮","Address":"台9線109k+240m東澳隧道南下","DeptNm":"宜蘭縣政府警察局","BranchNm":"蘇澳分局","Longitude":"121.84039","Latitude":"24.551931","direct":"北向南","limit":"70"},{"CityName":"宜蘭縣","RegionName":"蘇澳鎮","Address":"台9線103k+562m南下","DeptNm":"宜蘭縣政府警察局","BranchNm":"蘇澳分局","Longitude":"121.84053","Latitude":"24.59536","direct":"南北雙向","limit":"50"},{"CityName":"宜蘭縣","RegionName":"蘇澳鎮","Address":"蘇澳鎮台9線108k+269m至南澳鄉台9線110k+995m東澳隧道南下-1","DeptNm":"宜蘭縣政府警察局","BranchNm":"蘇澳分局","Longitude":"121.84233","Latitude":"24.560524","direct":"北向南","limit":"70"},{"CityName":"宜蘭縣","RegionName":"蘇澳鎮","Address":"台2線164k+390m港邊段南下","DeptNm":"宜蘭縣政府警察局","BranchNm":"蘇澳分局","Longitude":"121.85278","Latitude":"24.611954","direct":"南北雙向","limit":"70"},{"CityName":"宜蘭縣","RegionName":"蘇澳鎮","Address":"台2線166k+497m蘇澳港段南下","DeptNm":"宜蘭縣政府警察局","BranchNm":"蘇澳分局","Longitude":"121.85626","Latitude":"24.590792","direct":"南北雙向","limit":"60"},{"CityName":"宜蘭縣","RegionName":"蘇澳鎮","Address":"台2戊線12k+215m移山路北上","DeptNm":"宜蘭縣政府警察局","BranchNm":"蘇澳分局","Longitude":"121.8595","Latitude":"24.590792","direct":"南北雙向","limit":"60"},{"CityName":"宜蘭縣","RegionName":"頭城鎮","Address":"台9線56k+600m至68k+600m北往南-1","DeptNm":"宜蘭縣政府警察局","BranchNm":"礁溪分局","Longitude":"121.77586","Latitude":"24.865316","direct":"南北雙向","limit":"40"},{"CityName":"宜蘭縣","RegionName":"頭城鎮","Address":"台9線68k+600m至56k+600m南往北-2","DeptNm":"宜蘭縣政府警察局","BranchNm":"礁溪分局","Longitude":"121.77586","Latitude":"24.865316","direct":"南北雙向","limit":"40"},{"CityName":"宜蘭縣","RegionName":"頭城鎮","Address":"台9線69ｋ+20ｍ北宜路一段南下","DeptNm":"宜蘭縣政府警察局","BranchNm":"礁溪分局","Longitude":"121.79265","Latitude":"24.84562","direct":"南北雙向","limit":"60"},{"CityName":"宜蘭縣","RegionName":"頭城鎮","Address":"台9線68.6K南下","DeptNm":"宜蘭縣政府警察局","BranchNm":"礁溪分局","Longitude":"121.79389","Latitude":"24.849024","direct":"南北雙向","limit":"40"},{"CityName":"宜蘭縣","RegionName":"頭城鎮","Address":"台9線56k+600m至68k+600m北往南-2","DeptNm":"宜蘭縣政府警察局","BranchNm":"礁溪分局","Longitude":"121.79389","Latitude":"24.849024","direct":"南北雙向","limit":"40"},{"CityName":"宜蘭縣","RegionName":"頭城鎮","Address":"台9線68k+600m至56k+600m南往北-1","DeptNm":"宜蘭縣政府警察局","BranchNm":"礁溪分局","Longitude":"121.79389","Latitude":"24.849024","direct":"南北雙向","limit":"40"},{"CityName":"宜蘭縣","RegionName":"頭城鎮","Address":"宜3線3k+850m宜三路南下","DeptNm":"宜蘭縣政府警察局","BranchNm":"礁溪分局","Longitude":"121.79603","Latitude":"24.84921","direct":"南北雙向","limit":"50"},{"CityName":"宜蘭縣","RegionName":"頭城鎮","Address":"191甲線2ｋ+50ｍ中崙段南下","DeptNm":"宜蘭縣政府警察局","BranchNm":"礁溪分局","Longitude":"121.80138","Latitude":"24.828068","direct":"南北雙向","limit":"60"},{"CityName":"宜蘭縣","RegionName":"頭城鎮","Address":"台2線139k+738ｍ竹安段南下","DeptNm":"宜蘭縣政府警察局","BranchNm":"礁溪分局","Longitude":"121.82069","Latitude":"24.824112","direct":"南北雙向","limit":"60"},{"CityName":"宜蘭縣","RegionName":"頭城鎮","Address":"台2線133k+769ｍ港口段南下","DeptNm":"宜蘭縣政府警察局","BranchNm":"礁溪分局","Longitude":"121.83554","Latitude":"24.871765","direct":"南北雙向","limit":"60"},{"CityName":"宜蘭縣","RegionName":"頭城鎮","Address":"台2線129k+309m梗枋國小南下","DeptNm":"宜蘭縣政府警察局","BranchNm":"礁溪分局","Longitude":"121.86346","Latitude":"24.900974","direct":"南北雙向","limit":"50"},{"CityName":"宜蘭縣","RegionName":"頭城鎮","Address":"台2線128k+754m梗枋段南下","DeptNm":"宜蘭縣政府警察局","BranchNm":"礁溪分局","Longitude":"121.86673","Latitude":"24.90387","direct":"南北雙向","limit":"60"},{"CityName":"宜蘭縣","RegionName":"頭城鎮","Address":"台2線123ｋ+642ｍ大溪段北上","DeptNm":"宜蘭縣政府警察局","BranchNm":"礁溪分局","Longitude":"121.89127","Latitude":"24.939224","direct":"南北雙向","limit":"50"},{"CityName":"宜蘭縣","RegionName":"頭城鎮","Address":"台2線122k+634ｍ大溪段南下","DeptNm":"宜蘭縣政府警察局","BranchNm":"礁溪分局","Longitude":"121.90011","Latitude":"24.941515","direct":"北向南","limit":"60"},{"CityName":"宜蘭縣","RegionName":"頭城鎮","Address":"台2線118k+49m大里段南下","DeptNm":"宜蘭縣政府警察局","BranchNm":"礁溪分局","Longitude":"121.92609","Latitude":"24.970085","direct":"南北雙向","limit":"50"},{"CityName":"宜蘭縣","RegionName":"礁溪鄉","Address":"191線4K瑪僯段北上","DeptNm":"宜蘭縣政府警察局","BranchNm":"礁溪分局","Longitude":"121.780426","Latitude":"24.791037","direct":"南向北","limit":"60"},{"CityName":"宜蘭縣","RegionName":"礁溪鄉","Address":"191甲線6ｋ+600ｍ玉田段北上","DeptNm":"宜蘭縣政府警察局","BranchNm":"礁溪分局","Longitude":"121.784225","Latitude":"24.789581","direct":"南北雙向","limit":"60"},{"CityName":"宜蘭縣","RegionName":"礁溪鄉","Address":"份尾三路北上(份尾橋南側100公尺處)","DeptNm":"宜蘭縣政府警察局","BranchNm":"礁溪分局","Longitude":"121.78717","Latitude":"24.830685","direct":"南北雙向","limit":"50"},{"CityName":"宜蘭縣","RegionName":"礁溪鄉","Address":"宜4線4k+280m大塭段東向","DeptNm":"宜蘭縣政府警察局","BranchNm":"礁溪分局","Longitude":"121.810684","Latitude":"24.818115","direct":"東西雙向","limit":"50"},{"CityName":"宜蘭縣","RegionName":"壯圍鄉","Address":"191線與雪隧路口南下","DeptNm":"宜蘭縣政府警察局","BranchNm":"礁溪分局","Longitude":"121.77852","Latitude":"24.766775","direct":"北向南","limit":"60"},{"CityName":"宜蘭縣","RegionName":"壯圍鄉","Address":"宜16線7k+500ｍ新南段西向","DeptNm":"宜蘭縣政府警察局","BranchNm":"礁溪分局","Longitude":"121.783035","Latitude":"24.720304","direct":"東西雙向","limit":"50"},{"CityName":"宜蘭縣","RegionName":"壯圍鄉","Address":"宜16線9ｋ+500ｍ美福段東向","DeptNm":"宜蘭縣政府警察局","BranchNm":"礁溪分局","Longitude":"121.80265","Latitude":"24.719269","direct":"東西雙向","limit":"50"},{"CityName":"宜蘭縣","RegionName":"壯圍鄉","Address":"宜20線1ｋ+150m新南段西向","DeptNm":"宜蘭縣政府警察局","BranchNm":"礁溪分局","Longitude":"121.808556","Latitude":"24.727465","direct":"東西雙向","limit":"60"},{"CityName":"宜蘭縣","RegionName":"壯圍鄉","Address":"台2線147ｋ+40ｍ過嶺國小南下","DeptNm":"宜蘭縣政府警察局","BranchNm":"礁溪分局","Longitude":"121.81548","Latitude":"24.758747","direct":"南北雙向","limit":"60"},{"CityName":"宜蘭縣","RegionName":"壯圍鄉","Address":"台2線148k+400m北上","DeptNm":"宜蘭縣政府警察局","BranchNm":"礁溪分局","Longitude":"121.816315","Latitude":"24.746742","direct":"南北雙向","limit":"60"},{"CityName":"宜蘭縣","RegionName":"壯圍鄉","Address":"台2線142k+480ｍ大福段北上","DeptNm":"宜蘭縣政府警察局","BranchNm":"礁溪分局","Longitude":"121.81658","Latitude":"24.79972","direct":"南北雙向","limit":"60"},{"CityName":"宜蘭縣","RegionName":"壯圍鄉","Address":"台2線150ｋ+199m公館段南下","DeptNm":"宜蘭縣政府警察局","BranchNm":"礁溪分局","Longitude":"121.81915","Latitude":"24.73036","direct":"南北雙向","limit":"60"},{"CityName":"宜蘭縣","RegionName":"員山鄉","Address":"台7線113k+357ｍ內城段東向","DeptNm":"宜蘭縣政府警察局","BranchNm":"宜蘭分局","Longitude":"121.700935","Latitude":"24.717842","direct":"東西雙向","limit":"60"},{"CityName":"宜蘭縣","RegionName":"員山鄉","Address":"宜18-2線9ｋ深溝段西向","DeptNm":"宜蘭縣政府警察局","BranchNm":"宜蘭分局","Longitude":"121.709625","Latitude":"24.707457","direct":"東西雙向","limit":"60"},{"CityName":"宜蘭縣","RegionName":"員山鄉","Address":"台7線115k+865m八甲段西向","DeptNm":"宜蘭縣政府警察局","BranchNm":"宜蘭分局","Longitude":"121.71639","Latitude":"24.732752","direct":"東西雙向","limit":"60"},{"CityName":"宜蘭縣","RegionName":"員山鄉","Address":"宜61線900ｍ深溝段南下","DeptNm":"宜蘭縣政府警察局","BranchNm":"宜蘭分局","Longitude":"121.717964","Latitude":"24.720016","direct":"南北雙向","limit":"60"},{"CityName":"宜蘭縣","RegionName":"員山鄉","Address":"宜61線1ｋ+200ｍ深溝段北上","DeptNm":"宜蘭縣政府警察局","BranchNm":"宜蘭分局","Longitude":"121.71865","Latitude":"24.71743","direct":"南北雙向","limit":"60"},{"CityName":"宜蘭縣","RegionName":"員山鄉","Address":"宜18-2線溪洲路346號東向","DeptNm":"宜蘭縣政府警察局","BranchNm":"宜蘭分局","Longitude":"121.738594","Latitude":"24.714243","direct":"東西雙向","limit":"50"},{"CityName":"宜蘭縣","RegionName":"員山鄉","Address":"宜18-2線溪洲路150號西向","DeptNm":"宜蘭縣政府警察局","BranchNm":"宜蘭分局","Longitude":"121.748116","Latitude":"24.719","direct":"東西雙向","limit":"50"},{"CityName":"宜蘭縣","RegionName":"冬山鄉","Address":"台9線94k+450ｍ冬山段南下","DeptNm":"宜蘭縣政府警察局","BranchNm":"羅東分局","Longitude":"121.78557","Latitude":"24.645603","direct":"北向南","limit":"60"},{"CityName":"宜蘭縣","RegionName":"五結鄉","Address":"宜22線1k+400ｍ二結段東向","DeptNm":"宜蘭縣政府警察局","BranchNm":"羅東分局","Longitude":"121.76619","Latitude":"24.710798","direct":"東西雙向","limit":"60"},{"CityName":"宜蘭縣","RegionName":"五結鄉","Address":"台7丙線28k+98ｍ中山路東向","DeptNm":"宜蘭縣政府警察局","BranchNm":"羅東分局","Longitude":"121.78949","Latitude":"24.672573","direct":"東西雙向","limit":"60"},{"CityName":"宜蘭縣","RegionName":"五結鄉","Address":"191線與宜24線路口南下","DeptNm":"宜蘭縣政府警察局","BranchNm":"羅東分局","Longitude":"121.791145","Latitude":"24.688986","direct":"北向南","limit":"60"},{"CityName":"宜蘭縣","RegionName":"五結鄉","Address":"191線與196線路口北上","DeptNm":"宜蘭縣政府警察局","BranchNm":"羅東分局","Longitude":"121.79258","Latitude":"24.683813","direct":"南向北","limit":"60"},{"CityName":"宜蘭縣","RegionName":"五結鄉","Address":"五結鄉191線與傳藝路口南下","DeptNm":"宜蘭縣政府警察局","BranchNm":"羅東分局","Longitude":"121.79319","Latitude":"24.680323","direct":"北向南","limit":"60"},{"CityName":"宜蘭縣","RegionName":"五結鄉","Address":"五結鄉台7丙線29K+743M親河路西向","DeptNm":"宜蘭縣政府警察局","BranchNm":"羅東分局","Longitude":"121.80519","Latitude":"24.673485","direct":"東西雙向","limit":"60"},{"CityName":"宜蘭縣","RegionName":"五結鄉","Address":"宜22線6ｋ錦草段西向","DeptNm":"宜蘭縣政府警察局","BranchNm":"羅東分局","Longitude":"121.81058","Latitude":"24.709387","direct":"東西雙向","limit":"60"},{"CityName":"宜蘭縣","RegionName":"五結鄉","Address":"台2線157k+652m利澤段北上","DeptNm":"宜蘭縣政府警察局","BranchNm":"羅東分局","Longitude":"121.82835","Latitude":"24.664686","direct":"南向北","limit":"60"},{"CityName":"宜蘭縣","RegionName":"三星鄉","Address":"196線3ｋ+800ｍ萬富東向","DeptNm":"宜蘭縣政府警察局","BranchNm":"三星分局","Longitude":"121.67725","Latitude":"24.677273","direct":"東西雙向","limit":"60"},{"CityName":"宜蘭縣","RegionName":"三星鄉","Address":"台7丙線18ｋ+342ｍ大隱段東向","DeptNm":"宜蘭縣政府警察局","BranchNm":"三星分局","Longitude":"121.697624","Latitude":"24.667261","direct":"東西雙向","limit":"60"},{"CityName":"宜蘭縣","RegionName":"三星鄉","Address":"台7丙線19ｋ+865m大隱段西向","DeptNm":"宜蘭縣政府警察局","BranchNm":"三星分局","Longitude":"121.71217","Latitude":"24.670204","direct":"東西雙向","limit":"60"},{"CityName":"宜蘭縣","RegionName":"三星鄉","Address":"196線7ｋ+900ｍ大義段西向","DeptNm":"宜蘭縣政府警察局","BranchNm":"三星分局","Longitude":"121.71839","Latitude":"24.687069","direct":"東西雙向","limit":"60"},{"CityName":"宜蘭縣","RegionName":"三星鄉","Address":"宜61線3ｋ+600ｍ大洲段南下","DeptNm":"宜蘭縣政府警察局","BranchNm":"三星分局","Longitude":"121.72788","Latitude":"24.69807","direct":"北向南","limit":"60"},{"CityName":"宜蘭縣","RegionName":"三星鄉","Address":"宜61線3ｋ+800ｍ大洲段北上","DeptNm":"宜蘭縣政府警察局","BranchNm":"三星分局","Longitude":"121.72893","Latitude":"24.696066","direct":"南北雙向","limit":"60"},{"CityName":"宜蘭縣","RegionName":"三星鄉","Address":"196線11ｋ大洲段東向","DeptNm":"宜蘭縣政府警察局","BranchNm":"三星分局","Longitude":"121.74223","Latitude":"24.700827","direct":"東西雙向","limit":"50"},{"CityName":"宜蘭縣","RegionName":"南澳鄉","Address":"台9線137K+295m至141K+458m谷風隧道南下-2","DeptNm":"宜蘭縣政府警察局","BranchNm":"蘇澳分局","Longitude":"121.7648","Latitude":"24.330963","direct":"北向南","limit":"70"},{"CityName":"宜蘭縣","RegionName":"南澳鄉","Address":"台9線141K+420m至137K+205m谷風隧道北上-2","DeptNm":"宜蘭縣政府警察局","BranchNm":"蘇澳分局","Longitude":"121.76504","Latitude":"24.332409","direct":"南向北","limit":"70"},{"CityName":"宜蘭縣","RegionName":"南澳鄉","Address":"台9線139k+667m谷風隧道北上","DeptNm":"宜蘭縣政府警察局","BranchNm":"蘇澳分局","Longitude":"121.7668","Latitude":"24.347893","direct":"南向北","limit":"70"},{"CityName":"宜蘭縣","RegionName":"南澳鄉","Address":"台9線138k+677m谷風隧道南下","DeptNm":"宜蘭縣政府警察局","BranchNm":"蘇澳分局","Longitude":"121.771545","Latitude":"24.355694","direct":"北向南","limit":"70"},{"CityName":"宜蘭縣","RegionName":"南澳鄉","Address":"台9線129k+404m至131k+860m觀音隧道南下","DeptNm":"宜蘭縣政府警察局","BranchNm":"蘇澳分局","Longitude":"121.77481","Latitude":"24.433311","direct":"北向南","limit":"70"},{"CityName":"宜蘭縣","RegionName":"南澳鄉","Address":"台9線137K+295m至141K+458m谷風隧道南下-1","DeptNm":"宜蘭縣政府警察局","BranchNm":"蘇澳分局","Longitude":"121.77798","Latitude":"24.365217","direct":"北向南","limit":"70"},{"CityName":"宜蘭縣","RegionName":"南澳鄉","Address":"台9線141K+420m至137K+205m谷風隧道北上-1","DeptNm":"宜蘭縣政府警察局","BranchNm":"蘇澳分局","Longitude":"121.77935","Latitude":"24.366602","direct":"南向北","limit":"70"},{"CityName":"宜蘭縣","RegionName":"南澳鄉","Address":"台9線130k+347m觀音隧道北上","DeptNm":"宜蘭縣政府警察局","BranchNm":"蘇澳分局","Longitude":"121.780174","Latitude":"24.426088","direct":"南向北","limit":"70"},{"CityName":"宜蘭縣","RegionName":"南澳鄉","Address":"台9線134k+538m至136k+883m觀音隧道南下","DeptNm":"宜蘭縣政府警察局","BranchNm":"蘇澳分局","Longitude":"121.780304","Latitude":"24.369637","direct":"北向南","limit":"70"},{"CityName":"宜蘭縣","RegionName":"南澳鄉","Address":"台9線136k+912m至134k+405m觀音隧道北上","DeptNm":"宜蘭縣政府警察局","BranchNm":"蘇澳分局","Longitude":"121.780426","Latitude":"24.369045","direct":"南向北","limit":"70"},{"CityName":"宜蘭縣","RegionName":"南澳鄉","Address":"台9線130k+492m觀音隧道南下","DeptNm":"宜蘭縣政府警察局","BranchNm":"蘇澳分局","Longitude":"121.78068","Latitude":"24.42525","direct":"北向南","limit":"70"},{"CityName":"宜蘭縣","RegionName":"南澳鄉","Address":"台9線135K+910m觀音隧道南下","DeptNm":"宜蘭縣政府警察局","BranchNm":"蘇澳分局","Longitude":"121.78324","Latitude":"24.377888","direct":"北向南","limit":"70"},{"CityName":"宜蘭縣","RegionName":"南澳鄉","Address":"台9線135K+841m觀音隧道北上","DeptNm":"宜蘭縣政府警察局","BranchNm":"蘇澳分局","Longitude":"121.7837","Latitude":"24.378277","direct":"南向北","limit":"70"},{"CityName":"宜蘭縣","RegionName":"南澳鄉","Address":"台9線131K+860m至134K+538m觀音隧道南下","DeptNm":"宜蘭縣政府警察局","BranchNm":"蘇澳分局","Longitude":"121.78547","Latitude":"24.390112","direct":"北向南","limit":"70"},{"CityName":"宜蘭縣","RegionName":"南澳鄉","Address":"台9線134k+405m至131k+849m觀音隧道北上","DeptNm":"宜蘭縣政府警察局","BranchNm":"蘇澳分局","Longitude":"121.785706","Latitude":"24.390938","direct":"南向北","limit":"70"},{"CityName":"宜蘭縣","RegionName":"南澳鄉","Address":"台9線133k+289m觀音隧道南下","DeptNm":"宜蘭縣政府警察局","BranchNm":"蘇澳分局","Longitude":"121.78592","Latitude":"24.401218","direct":"北向南","limit":"70"},{"CityName":"宜蘭縣","RegionName":"南澳鄉","Address":"台9線131K+849m至129K+360m觀音隧道北上","DeptNm":"宜蘭縣政府警察局","BranchNm":"蘇澳分局","Longitude":"121.78607","Latitude":"24.413862","direct":"南向北","limit":"70"},{"CityName":"宜蘭縣","RegionName":"南澳鄉","Address":"台9線133k+174m觀音隧道北上","DeptNm":"宜蘭縣政府警察局","BranchNm":"蘇澳分局","Longitude":"121.78618","Latitude":"24.401888","direct":"南向北","limit":"70"},{"CityName":"宜蘭縣","RegionName":"南澳鄉","Address":"台9線123ｋ+570ｍ南澳段南下","DeptNm":"宜蘭縣政府警察局","BranchNm":"蘇澳分局","Longitude":"121.80645","Latitude":"24.46758","direct":"南北雙向","limit":"50"},{"CityName":"宜蘭縣","RegionName":"南澳鄉","Address":"蘇澳鎮台9線108k+269m至南澳鄉台9線110k+995m東澳隧道南下-2","DeptNm":"宜蘭縣政府警察局","BranchNm":"蘇澳分局","Longitude":"121.83616","Latitude":"24.536652","direct":"北向南","limit":"70"},{"CityName":"宜蘭縣","RegionName":"南澳鄉","Address":"南澳鄉台9線110k+960m至蘇澳鎮台9線108k+224m東澳隧道北上-1","DeptNm":"宜蘭縣政府警察局","BranchNm":"蘇澳分局","Longitude":"121.836655","Latitude":"24.536793","direct":"南向北","limit":"70"},{"CityName":"宜蘭縣","RegionName":"南澳鄉","Address":"台9線110k+300m東澳隧道北上","DeptNm":"宜蘭縣政府警察局","BranchNm":"蘇澳分局","Longitude":"121.83988","Latitude":"24.547905","direct":"南向北","limit":"70"},{"CityName":"宜蘭縣","RegionName":"南澳鄉","Address":"南澳鄉台9線110k+960m至蘇澳鎮台9線108k+224m東澳隧道北上-2","DeptNm":"宜蘭縣政府警察局","BranchNm":"蘇澳分局","Longitude":"121.84309","Latitude":"24.5618","direct":"南向北","limit":"70"},{"CityName":"新竹縣","RegionName":"竹北市","Address":"竹北市西濱路一段與西濱路二段 265 巷口","DeptNm":"新竹縣政府警察局","BranchNm":"竹縣警局交通隊","Longitude":"120.95332","Latitude":"24.86823","direct":"往北","limit":"70"},{"CityName":"新竹縣","RegionName":"竹北市","Address":"中正西路118線3km+500處","DeptNm":"新竹縣政府警察局","BranchNm":"竹北分局","Longitude":"120.97137","Latitude":"24.84157","direct":"東西雙向","limit":"50"},{"CityName":"新竹縣","RegionName":"竹北市","Address":"中華路1432號前(台1線65.5公里)南向","DeptNm":"新竹縣政府警察局","BranchNm":"新湖分局","Longitude":"120.99152","Latitude":"24.863388","direct":"南北雙向","limit":"60"},{"CityName":"新竹縣","RegionName":"竹北市","Address":"西濱公路與埔和路口(台15線64.4公里)南向","DeptNm":"新竹縣政府警察局","BranchNm":"新湖分局","Longitude":"120.99606","Latitude":"24.931686","direct":"北向南","limit":"60"},{"CityName":"新竹縣","RegionName":"竹北市","Address":"竹北市台1線中華路佑順加油站前","DeptNm":"新竹縣政府警察局","BranchNm":"竹北分局","Longitude":"120.99748","Latitude":"24.826073","direct":"南往北","limit":"50"},{"CityName":"新竹縣","RegionName":"竹北市","Address":"台一線大眉南下路口","DeptNm":"新竹縣政府警察局","BranchNm":"竹北分局","Longitude":"121.002075","Latitude":"24.855177","direct":"北往南","limit":"50"},{"CityName":"新竹縣","RegionName":"竹北市","Address":"中華路212號前(台1線70.1公里)","DeptNm":"新竹縣政府警察局","BranchNm":"竹北分局","Longitude":"121.00238","Latitude":"24.831179","direct":"南向北","limit":"50"},{"CityName":"新竹縣","RegionName":"竹北市","Address":"中華路1138號前","DeptNm":"新竹縣政府警察局","BranchNm":"竹北分局","Longitude":"121.00254","Latitude":"24.855085","direct":"南向北","limit":"50"},{"CityName":"新竹縣","RegionName":"竹北市","Address":"竹北市興隆路與莊敬南路口(新竹地方法院前)","DeptNm":"新竹縣政府警察局","BranchNm":"竹北分局","Longitude":"121.01772","Latitude":"24.812561","direct":"西往東","limit":"50"},{"CityName":"新竹縣","RegionName":"竹北市","Address":"竹北市自強北路與十興路口","DeptNm":"新竹縣政府警察局","BranchNm":"竹北分局","Longitude":"121.03342","Latitude":"24.826258","direct":"北往南","limit":"50"},{"CityName":"新竹縣","RegionName":"竹北市","Address":"竹北市光明六路東二段與嘉豐南路一段口","DeptNm":"新竹縣政府警察局","BranchNm":"竹北分局","Longitude":"121.03497","Latitude":"24.812794","direct":"西往東","limit":"50"},{"CityName":"新竹縣","RegionName":"竹北市","Address":"東興路二段316號前(120線7.1公里)雙向","DeptNm":"新竹縣政府警察局","BranchNm":"竹北分局","Longitude":"121.05501","Latitude":"24.797277","direct":"東西雙向","limit":"60"},{"CityName":"新竹縣","RegionName":"竹東鎮","Address":"台三線北上91.2公里","DeptNm":"新竹縣政府警察局","BranchNm":"竹東分局","Longitude":"120.98595","Latitude":"24.697054","direct":"南北雙向","limit":"60"},{"CityName":"新竹縣","RegionName":"竹東鎮","Address":"峨嵋鄉89.4公里","DeptNm":"新竹縣政府警察局","BranchNm":"竹東分局","Longitude":"120.99249","Latitude":"24.69987","direct":"往南","limit":"60"},{"CityName":"新竹縣","RegionName":"竹東鎮","Address":"中興路四段372號前(122線14公里)西向","DeptNm":"新竹縣政府警察局","BranchNm":"竹東分局","Longitude":"121.02924","Latitude":"24.779507","direct":"東向西","limit":"50"},{"CityName":"新竹縣","RegionName":"竹東鎮","Address":"台68線12.55公里(快速道路)西向","DeptNm":"新竹縣政府警察局","BranchNm":"竹東分局","Longitude":"121.029686","Latitude":"24.79777","direct":"東向西","limit":"90"},{"CityName":"新竹縣","RegionName":"竹東鎮","Address":"竹東鎮公道路616號前","DeptNm":"新竹縣政府警察局","BranchNm":"竹東分局","Longitude":"121.03005","Latitude":"24.787918","direct":"西往東","limit":"50"},{"CityName":"新竹縣","RegionName":"竹東鎮","Address":"台68線12.85公里(快速道路)東向","DeptNm":"新竹縣政府警察局","BranchNm":"竹東分局","Longitude":"121.03352","Latitude":"24.795456","direct":"西向東","limit":"90"},{"CityName":"新竹縣","RegionName":"竹東鎮","Address":"中盛村路口(台3線86.5公里)南向","DeptNm":"新竹縣政府警察局","BranchNm":"竹東分局","Longitude":"121.03471","Latitude":"24.697115","direct":"南北雙向","limit":"60"},{"CityName":"新竹縣","RegionName":"竹東鎮","Address":"台3線中豐路老爺山莊路口","DeptNm":"新竹縣政府警察局","BranchNm":"竹東分局","Longitude":"121.078285","Latitude":"24.723764","direct":"南向北","limit":"50"},{"CityName":"新竹縣","RegionName":"竹東鎮","Address":"竹122線18KM+160(中興路一段94-2號)","DeptNm":"新竹縣政府警察局","BranchNm":"竹東分局","Longitude":"121.08006","Latitude":"24.747807","direct":"東西雙向","limit":"50"},{"CityName":"新竹縣","RegionName":"竹東鎮","Address":"竹東鎮台68線竹東匝道口與北興路三段","DeptNm":"新竹縣政府警察局","BranchNm":"竹東分局","Longitude":"121.08052","Latitude":"24.749659","direct":"北往南","limit":"50"},{"CityName":"新竹縣","RegionName":"新埔鎮","Address":"新埔鎮文山里竹118線12K處","DeptNm":"新竹縣政府警察局","BranchNm":"新埔分局","Longitude":"121.05021","Latitude":"24.826906","direct":"西往東","limit":"50"},{"CityName":"新竹縣","RegionName":"新埔鎮","Address":"文山路亞東段369號西向","DeptNm":"新竹縣政府警察局","BranchNm":"新埔分局","Longitude":"121.05786","Latitude":"24.825338","direct":"東向西","limit":"60"},{"CityName":"新竹縣","RegionName":"新埔鎮","Address":"新關路1046巷口東向","DeptNm":"新竹縣政府警察局","BranchNm":"新埔分局","Longitude":"121.09389","Latitude":"24.822088","direct":"西往東","limit":"60"},{"CityName":"新竹縣","RegionName":"關西鎮","Address":"石光里702號前(118線19.1公里)西向","DeptNm":"新竹縣政府警察局","BranchNm":"新埔分局","Longitude":"121.115875","Latitude":"24.816027","direct":"東往西","limit":"60"},{"CityName":"新竹縣","RegionName":"關西鎮","Address":"竹118線22.7K","DeptNm":"新竹縣政府警察局","BranchNm":"新埔分局","Longitude":"121.15133","Latitude":"24.805145","direct":"東往西","limit":"50"},{"CityName":"新竹縣","RegionName":"關西鎮","Address":"南新里新城9鄰1號(台3線62公里)北向","DeptNm":"新竹縣政府警察局","BranchNm":"新埔分局","Longitude":"121.17297","Latitude":"24.765247","direct":"南往北","limit":"50"},{"CityName":"新竹縣","RegionName":"關西鎮","Address":"190號東光陸橋(台3線60.6公里)南向","DeptNm":"新竹縣政府警察局","BranchNm":"新埔分局","Longitude":"121.17617","Latitude":"24.775278","direct":"北向南","limit":"50"},{"CityName":"新竹縣","RegionName":"關西鎮","Address":"關西鎮台3線59km","DeptNm":"新竹縣政府警察局","BranchNm":"新埔分局","Longitude":"121.18595","Latitude":"24.788391","direct":"南往北","limit":"50"},{"CityName":"新竹縣","RegionName":"關西鎮","Address":"關西鎮中豐公路牛欄河6鄰63號","DeptNm":"新竹縣政府警察局","BranchNm":"新埔分局","Longitude":"121.19896","Latitude":"24.811626","direct":"南向北","limit":"60"},{"CityName":"新竹縣","RegionName":"湖口鄉","Address":"新豐鄉新興路與康樂路口","DeptNm":"新竹縣政府警察局","BranchNm":"竹縣警局交通隊","Longitude":"120.99183","Latitude":"24.86469","direct":"往南","limit":"50"},{"CityName":"新竹縣","RegionName":"湖口鄉","Address":"湖口鄉台1線新興路與中華路口65.5公里北上","DeptNm":"新竹縣政府警察局","BranchNm":"新湖分局","Longitude":"121.00688","Latitude":"24.8795","direct":"往北","limit":"60"},{"CityName":"新竹縣","RegionName":"湖口鄉","Address":"湖口鄉成功路與三元路路口","DeptNm":"新竹縣政府警察局","BranchNm":"新湖分局","Longitude":"121.02174","Latitude":"24.889975","direct":"西往東","limit":"60"},{"CityName":"新竹縣","RegionName":"湖口鄉","Address":"八德路一段35號前(台1線61公里)南向","DeptNm":"新竹縣政府警察局","BranchNm":"新湖分局","Longitude":"121.02346","Latitude":"24.885187","direct":"北向南","limit":"70"},{"CityName":"新竹縣","RegionName":"湖口鄉","Address":"台1線中山路口南向","DeptNm":"新竹縣政府警察局","BranchNm":"新湖分局","Longitude":"121.03631","Latitude":"24.880438","direct":"北向南","limit":"70"},{"CityName":"新竹縣","RegionName":"湖口鄉","Address":"台1線54KM+900處","DeptNm":"新竹縣政府警察局","BranchNm":"新湖分局","Longitude":"121.082695","Latitude":"24.886557","direct":"南北雙向","limit":"70"},{"CityName":"新竹縣","RegionName":"新豐鄉","Address":"新豐鄉新興路與康樂路口","DeptNm":"新竹縣政府警察局","BranchNm":"新湖分局","Longitude":"120.991875","Latitude":"24.864685","direct":"北往南","limit":"50"},{"CityName":"新竹縣","RegionName":"新豐鄉","Address":"台15線62公里南向","DeptNm":"新竹縣政府警察局","BranchNm":"新湖分局","Longitude":"120.99692","Latitude":"24.932375","direct":"北向南","limit":"60"},{"CityName":"新竹縣","RegionName":"芎林鄉","Address":"芎林鄉富林路一段竹120線15.5K處","DeptNm":"新竹縣政府警察局","BranchNm":"橫山分局","Longitude":"0.0","Latitude":"0.0","direct":"西往東","limit":"60"},{"CityName":"新竹縣","RegionName":"芎林鄉","Address":"富林路三段、文德路口(120線10.4公里)東向","DeptNm":"新竹縣政府警察局","BranchNm":"橫山分局","Longitude":"121.07388","Latitude":"24.774717","direct":"東向西","limit":"60"},{"CityName":"新竹縣","RegionName":"芎林鄉","Address":"富林路二段竹林交流道(120線11.5公里)西向","DeptNm":"新竹縣政府警察局","BranchNm":"橫山分局","Longitude":"121.08224","Latitude":"24.765705","direct":"東向西","limit":"60"},{"CityName":"新竹縣","RegionName":"橫山鄉","Address":"橫山鄉中豐路二段12巷口(台3線)","DeptNm":"新竹縣政府警察局","BranchNm":"橫山分局","Longitude":"0.0","Latitude":"0.0","direct":"西往東","limit":"60"},{"CityName":"新竹縣","RegionName":"橫山鄉","Address":"中豐路一段、站前街口(台3線72.9公里)南向","DeptNm":"新竹縣政府警察局","BranchNm":"橫山分局","Longitude":"121.11652","Latitude":"24.720446","direct":"南北雙向","limit":"60"},{"CityName":"新竹縣","RegionName":"寶山鄉","Address":"寶山鄉寶山路二段竹83線0km+800","DeptNm":"新竹縣政府警察局","BranchNm":"竹東分局","Longitude":"0.0","Latitude":"0.0","direct":"南往北","limit":"50"},{"CityName":"新竹縣","RegionName":"寶山鄉","Address":"雙林路一般竹47-1線4km處","DeptNm":"新竹縣政府警察局","BranchNm":"竹東分局","Longitude":"120.95864","Latitude":"24.744226","direct":"南向北","limit":"50"},{"CityName":"新竹縣","RegionName":"寶山鄉","Address":"雙園路2段(竹82線1公里)南向","DeptNm":"新竹縣政府警察局","BranchNm":"竹東分局","Longitude":"120.99643","Latitude":"24.766848","direct":"北向南","limit":"50"},{"CityName":"新竹縣","RegionName":"寶山鄉","Address":"竹83線4km+150","DeptNm":"新竹縣政府警察局","BranchNm":"竹東分局","Longitude":"121.033325","Latitude":"24.728348","direct":"西往東","limit":"50"},{"CityName":"苗栗縣","RegionName":"苗栗市","Address":"台13線35.2公里處","DeptNm":"苗栗縣警察局","BranchNm":"苗栗分局","Longitude":"120.792854","Latitude":"24.522364","direct":"南向北","limit":"60"},{"CityName":"苗栗縣","RegionName":"苗栗市","Address":"新川里柑園5號前處","DeptNm":"苗栗縣警察局","BranchNm":"苗栗分局","Longitude":"120.80374","Latitude":"24.578798","direct":"東向西","limit":"60"},{"CityName":"苗栗縣","RegionName":"苗栗市","Address":"台13線30.3公里處(苗商後方)","DeptNm":"苗栗縣警察局","BranchNm":"苗栗分局","Longitude":"120.81373","Latitude":"24.557383","direct":"南北雙向","limit":"50"},{"CityName":"苗栗縣","RegionName":"苗栗市","Address":"台13線31.1公里處(信義街口)","DeptNm":"苗栗縣警察局","BranchNm":"苗栗分局","Longitude":"120.813934","Latitude":"24.550495","direct":"南向北","limit":"50"},{"CityName":"苗栗縣","RegionName":"苗栗市","Address":"英才路與文發路 口","DeptNm":"苗栗縣警察局","BranchNm":"苗栗分局","Longitude":"120.81526","Latitude":"24.590336","direct":"東向西","limit":"50"},{"CityName":"苗栗縣","RegionName":"苗栗市","Address":"中正路905號前公車停靠區及禁臨停區","DeptNm":"苗栗縣警察局","BranchNm":"苗栗分局","Longitude":"120.81608","Latitude":"24.551743","direct":"南北雙向","limit":"50"},{"CityName":"苗栗縣","RegionName":"苗栗市","Address":"台6線(經國路)14.5公里處","DeptNm":"苗栗縣警察局","BranchNm":"苗栗分局","Longitude":"120.83144","Latitude":"24.551407","direct":"東西雙向","limit":"70"},{"CityName":"苗栗縣","RegionName":"苑裡鎮","Address":"台1線140.8公里處(臨海路口)","DeptNm":"苗栗縣警察局","BranchNm":"通霄分局","Longitude":"120.64825","Latitude":"24.4435","direct":"北向南","limit":"60"},{"CityName":"苗栗縣","RegionName":"苑裡鎮","Address":"苑北里中山路與成功路口處","DeptNm":"苗栗縣警察局","BranchNm":"通霄分局","Longitude":"120.65332","Latitude":"24.44647","direct":"北向南","limit":"50"},{"CityName":"苗栗縣","RegionName":"苑裡鎮","Address":"140線與苗47之1線口處","DeptNm":"苗栗縣警察局","BranchNm":"通霄分局","Longitude":"120.6551","Latitude":"24.41928","direct":"西向東","limit":"50"},{"CityName":"苗栗縣","RegionName":"苑裡鎮","Address":"140線與121線口處","DeptNm":"苗栗縣警察局","BranchNm":"通霄分局","Longitude":"120.67131","Latitude":"24.394587","direct":"東向西","limit":"60"},{"CityName":"苗栗縣","RegionName":"苑裡鎮","Address":"140線8.1公里處","DeptNm":"苗栗縣警察局","BranchNm":"通霄分局","Longitude":"120.68583","Latitude":"24.37995","direct":"西向東","limit":"60"},{"CityName":"苗栗縣","RegionName":"通霄鎮","Address":"台1線137.2公里處(五福國小陸橋下)","DeptNm":"苗栗縣警察局","BranchNm":"通霄分局","Longitude":"120.66622","Latitude":"24.469824","direct":"南向北","limit":"60"},{"CityName":"苗栗縣","RegionName":"通霄鎮","Address":"台61線北向122.6公里至115.6公里","DeptNm":"苗栗縣警察局","BranchNm":"通霄分局","Longitude":"120.67632","Latitude":"24.494154","direct":"南向北","limit":"90"},{"CityName":"苗栗縣","RegionName":"通霄鎮","Address":"台61線南向122.2公里至130.2公里","DeptNm":"苗栗縣警察局","BranchNm":"通霄分局","Longitude":"120.67696","Latitude":"24.497608","direct":"北向南","limit":"90"},{"CityName":"苗栗縣","RegionName":"通霄鎮","Address":"台1線134.7公里與121線口處","DeptNm":"苗栗縣警察局","BranchNm":"通霄分局","Longitude":"120.68407","Latitude":"24.48168","direct":"北向南","limit":"60"},{"CityName":"苗栗縣","RegionName":"通霄鎮","Address":"128線2.4公里處","DeptNm":"苗栗縣警察局","BranchNm":"通霄分局","Longitude":"120.69913","Latitude":"24.496456","direct":"東向西","limit":"60"},{"CityName":"苗栗縣","RegionName":"通霄鎮","Address":"台1線124.8公里處(啟新國中前)","DeptNm":"苗栗縣警察局","BranchNm":"通霄分局","Longitude":"120.709694","Latitude":"24.56362","direct":"南向北","limit":"60"},{"CityName":"苗栗縣","RegionName":"通霄鎮","Address":"台61線114.3公里處","DeptNm":"苗栗縣警察局","BranchNm":"通霄分局","Longitude":"120.7139","Latitude":"24.559273","direct":"南向北","limit":"90"},{"CityName":"苗栗縣","RegionName":"竹南鎮","Address":"台1線124.1公里處(拱天宮前)","DeptNm":"苗栗縣警察局","BranchNm":"通霄分局","Longitude":"120.7121","Latitude":"24.569326","direct":"北向南","limit":"60"},{"CityName":"苗栗縣","RegionName":"竹南鎮","Address":"台61線90.4公里與苗3-3線路口處","DeptNm":"苗栗縣警察局","BranchNm":"竹南分局","Longitude":"120.81119","Latitude":"24.657883","direct":"北向南","limit":"80"},{"CityName":"苗栗縣","RegionName":"竹南鎮","Address":"台1己線1.3公里與明勝路口處","DeptNm":"苗栗縣警察局","BranchNm":"竹南分局","Longitude":"120.85556","Latitude":"24.671747","direct":"東向西","limit":"60"},{"CityName":"苗栗縣","RegionName":"竹南鎮","Address":"台61線91公里快(側)車道與博愛街口處","DeptNm":"苗栗縣警察局","BranchNm":"竹南分局","Longitude":"120.85995","Latitude":"24.693743","direct":"南向北","limit":"40"},{"CityName":"苗栗縣","RegionName":"竹南鎮","Address":"台61線88.15公里處","DeptNm":"苗栗縣警察局","BranchNm":"竹南分局","Longitude":"120.86775","Latitude":"24.717684","direct":"南北雙向","limit":"80"},{"CityName":"苗栗縣","RegionName":"竹南鎮","Address":"台1己線3公里處","DeptNm":"苗栗縣警察局","BranchNm":"竹南分局","Longitude":"120.87099","Latitude":"24.671583","direct":"西向東","limit":"60"},{"CityName":"苗栗縣","RegionName":"竹南鎮","Address":"環市路與公教路口處（清寧橋前）","DeptNm":"苗栗縣警察局","BranchNm":"竹南分局","Longitude":"120.87718","Latitude":"24.692722","direct":"東向西","limit":"60"},{"CityName":"苗栗縣","RegionName":"竹南鎮","Address":"竹南火車站前後圓環","DeptNm":"苗栗縣警察局","BranchNm":"竹南分局","Longitude":"120.879974","Latitude":"24.686905","direct":"東西南北","limit":"30"},{"CityName":"苗栗縣","RegionName":"竹南鎮","Address":"台13線永貞路與公園路口處","DeptNm":"苗栗縣警察局","BranchNm":"竹南分局","Longitude":"120.88542","Latitude":"24.690916","direct":"北向南","limit":"60"},{"CityName":"苗栗縣","RegionName":"竹南鎮","Address":"永貞路與勝利街口處","DeptNm":"苗栗縣警察局","BranchNm":"竹南分局","Longitude":"120.885445","Latitude":"24.69521","direct":"北向南","limit":"60"},{"CityName":"苗栗縣","RegionName":"竹南鎮","Address":"台13線2.5公里與友義路口處","DeptNm":"苗栗縣警察局","BranchNm":"竹南分局","Longitude":"120.90459","Latitude":"24.723228","direct":"南向北","limit":"60"},{"CityName":"苗栗縣","RegionName":"竹南鎮","Address":"台1線與苗2線口處(科學路口)","DeptNm":"苗栗縣警察局","BranchNm":"竹南分局","Longitude":"120.92211","Latitude":"24.713758","direct":"南向北","limit":"70"},{"CityName":"苗栗縣","RegionName":"頭份市","Address":"台1線與苗10線口處","DeptNm":"苗栗縣警察局","BranchNm":"頭份分局","Longitude":"120.878746","Latitude":"24.66203","direct":"北向南","limit":"70"},{"CityName":"苗栗縣","RegionName":"頭份市","Address":"台1線98.3公里處","DeptNm":"苗栗縣警察局","BranchNm":"頭份分局","Longitude":"120.88218","Latitude":"24.663143","direct":"南向北","limit":"70"},{"CityName":"苗栗縣","RegionName":"頭份市","Address":"台13線12.1公里處（尖山國小前）","DeptNm":"苗栗縣警察局","BranchNm":"頭份分局","Longitude":"120.88288","Latitude":"24.65347","direct":"南向北","limit":"60"},{"CityName":"苗栗縣","RegionName":"頭份市","Address":"中華路440號處","DeptNm":"苗栗縣警察局","BranchNm":"頭份分局","Longitude":"120.89102","Latitude":"24.674002","direct":"南向北","limit":"60"},{"CityName":"苗栗縣","RegionName":"頭份市","Address":"台1線95.2公里處(紡安紡織公司口)","DeptNm":"苗栗縣警察局","BranchNm":"頭份分局","Longitude":"120.89492","Latitude":"24.683172","direct":"南向北","limit":"60"},{"CityName":"苗栗縣","RegionName":"頭份市","Address":"中央路(頭份國中前)","DeptNm":"苗栗縣警察局","BranchNm":"頭份分局","Longitude":"120.90152","Latitude":"24.692188","direct":"東西雙向","limit":"50"},{"CityName":"苗栗縣","RegionName":"頭份市","Address":"台1線91.6公里與科東二路口處","DeptNm":"苗栗縣警察局","BranchNm":"頭份分局","Longitude":"120.90206","Latitude":"24.68516","direct":"北向南","limit":"60"},{"CityName":"苗栗縣","RegionName":"頭份市","Address":"中華路與自強路口","DeptNm":"苗栗縣警察局","BranchNm":"頭份分局","Longitude":"120.9131","Latitude":"24.690813","direct":"北向南","limit":"60"},{"CityName":"苗栗縣","RegionName":"頭份市","Address":"正興路與水源路口處","DeptNm":"苗栗縣警察局","BranchNm":"頭份分局","Longitude":"120.91392","Latitude":"24.674433","direct":"北向南","limit":"60"},{"CityName":"苗栗縣","RegionName":"頭份市","Address":"124甲線與中華路口","DeptNm":"苗栗縣警察局","BranchNm":"頭份分局","Longitude":"120.91523","Latitude":"24.69308","direct":"東向西","limit":"50"},{"CityName":"苗栗縣","RegionName":"頭份市","Address":"124甲線1公里東向與土牛社區路口處","DeptNm":"苗栗縣警察局","BranchNm":"頭份分局","Longitude":"120.92369","Latitude":"24.690245","direct":"西向東","limit":"50"},{"CityName":"苗栗縣","RegionName":"頭份市","Address":"124甲線1公里西向與土牛社區路口處","DeptNm":"苗栗縣警察局","BranchNm":"頭份分局","Longitude":"120.92423","Latitude":"24.68992","direct":"東向西","limit":"50"},{"CityName":"苗栗縣","RegionName":"頭份市","Address":"中正一路與124甲線路口","DeptNm":"苗栗縣警察局","BranchNm":"頭份分局","Longitude":"120.92912","Latitude":"24.686438","direct":"東向西","limit":"50"},{"CityName":"苗栗縣","RegionName":"頭份市","Address":"124線8.45公里處","DeptNm":"苗栗縣警察局","BranchNm":"頭份分局","Longitude":"120.93603","Latitude":"24.685402","direct":"東向西","limit":"50"},{"CityName":"苗栗縣","RegionName":"頭份市","Address":"124線9.8公里處","DeptNm":"苗栗縣警察局","BranchNm":"頭份分局","Longitude":"120.94835","Latitude":"24.680124","direct":"西向東","limit":"50"},{"CityName":"苗栗縣","RegionName":"頭份市","Address":"124線10.75公里處","DeptNm":"苗栗縣警察局","BranchNm":"頭份分局","Longitude":"120.95703","Latitude":"24.681976","direct":"東向西","limit":"50"},{"CityName":"苗栗縣","RegionName":"後龍鎮","Address":"台61線與苗11線口處","DeptNm":"苗栗縣警察局","BranchNm":"竹南分局","Longitude":"120.78327","Latitude":"24.637379","direct":"南向北","limit":"80"},{"CityName":"苗栗縣","RegionName":"後龍鎮","Address":"台6線3.7公里處(後龍交流道附近)","DeptNm":"苗栗縣警察局","BranchNm":"竹南分局","Longitude":"120.78955","Latitude":"24.594868","direct":"西向東","limit":"60"},{"CityName":"苗栗縣","RegionName":"後龍鎮","Address":"台1線與成功路口處","DeptNm":"苗栗縣警察局","BranchNm":"竹南分局","Longitude":"120.79464","Latitude":"24.61392","direct":"南向北","limit":"60"},{"CityName":"苗栗縣","RegionName":"後龍鎮","Address":"台61線97.55公里處","DeptNm":"苗栗縣警察局","BranchNm":"竹南分局","Longitude":"120.81203","Latitude":"24.657776","direct":"南北雙向","limit":"80"},{"CityName":"苗栗縣","RegionName":"後龍鎮","Address":"台13甲線12.4公里處","DeptNm":"苗栗縣警察局","BranchNm":"竹南分局","Longitude":"120.832245","Latitude":"24.607538","direct":"北向南","limit":"60"},{"CityName":"苗栗縣","RegionName":"卓蘭鎮","Address":"台3線142.2公里處","DeptNm":"苗栗縣警察局","BranchNm":"大湖分局","Longitude":"120.82357","Latitude":"24.338886","direct":"南向北","limit":"60"},{"CityName":"苗栗縣","RegionName":"卓蘭鎮","Address":"台3線146.8公里處（豐田國小旁）","DeptNm":"苗栗縣警察局","BranchNm":"大湖分局","Longitude":"120.823845","Latitude":"24.3246","direct":"北向南","limit":"60"},{"CityName":"苗栗縣","RegionName":"大湖鄉","Address":"台3線141公里處","DeptNm":"苗栗縣警察局","BranchNm":"大湖分局","Longitude":"120.8283","Latitude":"24.348303","direct":"北向南","limit":"60"},{"CityName":"苗栗縣","RegionName":"大湖鄉","Address":"台3線137.2公里","DeptNm":"苗栗縣警察局","BranchNm":"大湖分局","Longitude":"120.842674","Latitude":"24.37388","direct":"南向北","limit":"60"},{"CityName":"苗栗縣","RegionName":"大湖鄉","Address":"台3線與苗55線口處(南湖國小前)","DeptNm":"苗栗縣警察局","BranchNm":"大湖分局","Longitude":"120.86043","Latitude":"24.395475","direct":"南向北","limit":"60"},{"CityName":"苗栗縣","RegionName":"大湖鄉","Address":"台3線131.6公里處","DeptNm":"苗栗縣警察局","BranchNm":"大湖分局","Longitude":"120.86529","Latitude":"24.409588","direct":"南向北","limit":"60"},{"CityName":"苗栗縣","RegionName":"大湖鄉","Address":"台3線與中原路口處","DeptNm":"苗栗縣警察局","BranchNm":"大湖分局","Longitude":"120.86771","Latitude":"24.428797","direct":"南向北","limit":"60"},{"CityName":"苗栗縣","RegionName":"公館鄉","Address":"台72線24公里處","DeptNm":"苗栗縣警察局","BranchNm":"苗栗分局","Longitude":"120.81822","Latitude":"24.46855","direct":"東西雙向","limit":"80"},{"CityName":"苗栗縣","RegionName":"公館鄉","Address":"119甲線(沿山道)3.4公里處","DeptNm":"苗栗縣警察局","BranchNm":"苗栗分局","Longitude":"120.835365","Latitude":"24.512255","direct":"北向南","limit":"60"},{"CityName":"苗栗縣","RegionName":"銅鑼鄉","Address":"台13線與苗38－1線口處（外環道與九湖橋頭）","DeptNm":"苗栗縣警察局","BranchNm":"苗栗分局","Longitude":"120.78136","Latitude":"24.478888","direct":"北向南","limit":"60"},{"CityName":"苗栗縣","RegionName":"銅鑼鄉","Address":"台13線與128線口處","DeptNm":"苗栗縣警察局","BranchNm":"苗栗分局","Longitude":"120.78141","Latitude":"24.494358","direct":"北向南","limit":"60"},{"CityName":"苗栗縣","RegionName":"銅鑼鄉","Address":"128線與苗27線口處","DeptNm":"苗栗縣警察局","BranchNm":"苗栗分局","Longitude":"120.80876","Latitude":"24.498888","direct":"北向南","limit":"60"},{"CityName":"苗栗縣","RegionName":"銅鑼鄉","Address":"台72線與119甲線口處","DeptNm":"苗栗縣警察局","BranchNm":"苗栗分局","Longitude":"120.80923","Latitude":"24.47729","direct":"東向西","limit":"80"},{"CityName":"苗栗縣","RegionName":"南庄鄉","Address":"台3線與苗20線口處","DeptNm":"苗栗縣警察局","BranchNm":"頭份分局","Longitude":"120.955826","Latitude":"24.639528","direct":"南向北","limit":"60"},{"CityName":"苗栗縣","RegionName":"頭屋鄉","Address":"台13線24.2公里處","DeptNm":"苗栗縣警察局","BranchNm":"苗栗分局","Longitude":"120.85494","Latitude":"24.576845","direct":"北向南","limit":"50"},{"CityName":"苗栗縣","RegionName":"三義鄉","Address":"140線15.3公里處","DeptNm":"苗栗縣警察局","BranchNm":"苗栗分局","Longitude":"120.74204","Latitude":"24.35014","direct":"東西向","limit":"50"},{"CityName":"苗栗縣","RegionName":"三義鄉","Address":"140線16.2公里至23.1公里至25.1公里","DeptNm":"苗栗縣警察局","BranchNm":"苗栗分局","Longitude":"120.744514","Latitude":"24.345043","direct":"東西雙向","limit":"50"},{"CityName":"苗栗縣","RegionName":"三義鄉","Address":"台13線52.4公里處(龍騰派出所前)","DeptNm":"苗栗縣警察局","BranchNm":"苗栗分局","Longitude":"120.74986","Latitude":"24.378527","direct":"北向南","limit":"60"},{"CityName":"苗栗縣","RegionName":"三義鄉","Address":"140線20.2公里處","DeptNm":"苗栗縣警察局","BranchNm":"苗栗分局","Longitude":"120.77479","Latitude":"24.323368","direct":"東西雙向","limit":"50"},{"CityName":"苗栗縣","RegionName":"造橋鄉","Address":"台13甲線北向11公里至9.8公里","DeptNm":"苗栗縣警察局","BranchNm":"竹南分局","Longitude":"120.839836","Latitude":"24.616726","direct":"北向","limit":"50"},{"CityName":"苗栗縣","RegionName":"造橋鄉","Address":"台1線102.8公里處（育達科技大學前）","DeptNm":"苗栗縣警察局","BranchNm":"竹南分局","Longitude":"120.845","Latitude":"24.646929","direct":"南向北","limit":"70"},{"CityName":"苗栗縣","RegionName":"造橋鄉","Address":"台13甲線10.1公里處","DeptNm":"苗栗縣警察局","BranchNm":"竹南分局","Longitude":"120.84604","Latitude":"24.622055","direct":"南北雙向","limit":"50"},{"CityName":"苗栗縣","RegionName":"造橋鄉","Address":"台13甲線南向9.8公里至11公里","DeptNm":"苗栗縣警察局","BranchNm":"竹南分局","Longitude":"120.84835","Latitude":"24.624105","direct":"南向","limit":"50"},{"CityName":"苗栗縣","RegionName":"造橋鄉","Address":"台13甲線北向9.5公里至8.3公里","DeptNm":"苗栗縣警察局","BranchNm":"竹南分局","Longitude":"120.85055","Latitude":"24.625143","direct":"北向","limit":"60"},{"CityName":"苗栗縣","RegionName":"造橋鄉","Address":"台1線與苗9線口處（談文派出所前）","DeptNm":"苗栗縣警察局","BranchNm":"竹南分局","Longitude":"120.85221","Latitude":"24.653536","direct":"南向北","limit":"70"},{"CityName":"苗栗縣","RegionName":"造橋鄉","Address":"台13甲線南向8.3公里至9.5公里","DeptNm":"苗栗縣警察局","BranchNm":"竹南分局","Longitude":"120.85721","Latitude":"24.632866","direct":"南向","limit":"60"},{"CityName":"苗栗縣","RegionName":"三灣鄉","Address":"台3線102.8公里處","DeptNm":"苗栗縣警察局","BranchNm":"頭份分局","Longitude":"120.94928","Latitude":"24.616138","direct":"南北雙向","limit":"60"},{"CityName":"苗栗縣","RegionName":"三灣鄉","Address":"台3線101.5公里處(大河老街口)","DeptNm":"苗栗縣警察局","BranchNm":"頭份分局","Longitude":"120.949905","Latitude":"24.619045","direct":"南向北","limit":"60"},{"CityName":"苗栗縣","RegionName":"三灣鄉","Address":"台3線103.2公里至108公里","DeptNm":"苗栗縣警察局","BranchNm":"頭份分局","Longitude":"120.952415","Latitude":"24.61412","direct":"南北雙向","limit":"60"},{"CityName":"苗栗縣","RegionName":"三灣鄉","Address":"台3線104.9公里處","DeptNm":"苗栗縣警察局","BranchNm":"頭份分局","Longitude":"120.9586","Latitude":"24.604675","direct":"南向北","limit":"60"},{"CityName":"苗栗縣","RegionName":"三灣鄉","Address":"台3線95.5公里處","DeptNm":"苗栗縣警察局","BranchNm":"頭份分局","Longitude":"120.96546","Latitude":"24.665936","direct":"南向北","limit":"60"},{"CityName":"苗栗縣","RegionName":"獅潭鄉","Address":"台3線108公里處","DeptNm":"苗栗縣警察局","BranchNm":"大湖分局","Longitude":"120.71483","Latitude":"23.803984","direct":"南、北雙向","limit":"60"},{"CityName":"苗栗縣","RegionName":"獅潭鄉","Address":"台3線114.3公里至122.8公里","DeptNm":"苗栗縣警察局","BranchNm":"大湖分局","Longitude":"120.88974","Latitude":"24.476599","direct":"南北雙向","limit":"60"},{"CityName":"苗栗縣","RegionName":"獅潭鄉","Address":"台3線120.9公里處","DeptNm":"苗栗縣警察局","BranchNm":"大湖分局","Longitude":"120.89901","Latitude":"24.488768","direct":"北向南","limit":"60"},{"CityName":"苗栗縣","RegionName":"獅潭鄉","Address":"台3線115.4公里處","DeptNm":"苗栗縣警察局","BranchNm":"大湖分局","Longitude":"120.91459","Latitude":"24.529861","direct":"南向北","limit":"60"},{"CityName":"苗栗縣","RegionName":"獅潭鄉","Address":"台3線111.8公里處","DeptNm":"苗栗縣警察局","BranchNm":"大湖分局","Longitude":"120.916466","Latitude":"24.52958","direct":"北向南","limit":"60"},{"CityName":"苗栗縣","RegionName":"獅潭鄉","Address":"台3線113.5公里處","DeptNm":"苗栗縣警察局","BranchNm":"大湖分局","Longitude":"120.916466","Latitude":"24.52958","direct":"北向南","limit":"60"},{"CityName":"苗栗縣","RegionName":"獅潭鄉","Address":"台3線113.1公里處(獅潭國中旁)","DeptNm":"苗栗縣警察局","BranchNm":"大湖分局","Longitude":"120.921745","Latitude":"24.5422","direct":"北向南","limit":"60"},{"CityName":"彰化縣","RegionName":"彰化市","Address":"彰化市新平路與環和路口(省道)","DeptNm":"彰化縣警察局","BranchNm":"彰化分局","Longitude":"120.52154","Latitude":"24.065105","direct":"路口科技執法","limit":"60"},{"CityName":"彰化縣","RegionName":"彰化市","Address":"金馬、忠誠路口","DeptNm":"彰化縣警察局","BranchNm":"彰化分局","Longitude":"120.53111","Latitude":"24.08472","direct":"南向","limit":"70"},{"CityName":"彰化縣","RegionName":"彰化市","Address":"彰化市中華路與中正路口(省道)","DeptNm":"彰化縣警察局","BranchNm":"彰化分局","Longitude":"120.5367","Latitude":"24.076794","direct":"路口科技執法","limit":"40"},{"CityName":"彰化縣","RegionName":"彰化市","Address":"建國北路","DeptNm":"彰化縣警察局","BranchNm":"彰化分局","Longitude":"120.55056","Latitude":"24.09194","direct":"西向","limit":"50"},{"CityName":"彰化縣","RegionName":"彰化市","Address":"中興路與介壽橋口","DeptNm":"彰化縣警察局","BranchNm":"彰化分局","Longitude":"120.5525","Latitude":"24.07028","direct":"西向","limit":"50"},{"CityName":"彰化縣","RegionName":"彰化市","Address":"中山、中正路口","DeptNm":"彰化縣警察局","BranchNm":"彰化分局","Longitude":"120.5525","Latitude":"24.08389","direct":"北向","limit":"50"},{"CityName":"彰化縣","RegionName":"彰化市","Address":"台74甲線與彰員路口","DeptNm":"彰化縣警察局","BranchNm":"彰化分局","Longitude":"120.55556","Latitude":"24.02333","direct":"南向","limit":"70"},{"CityName":"彰化縣","RegionName":"彰化市","Address":"金馬路一段、泰和路二段415巷口","DeptNm":"彰化縣警察局","BranchNm":"彰化分局","Longitude":"120.55722","Latitude":"24.09833","direct":"北向","limit":"70"},{"CityName":"彰化縣","RegionName":"彰化市","Address":"彰化市金馬東路與金馬東路317巷口","DeptNm":"彰化縣警察局","BranchNm":"彰化分局","Longitude":"120.57575","Latitude":"24.093752","direct":"南向","limit":"70"},{"CityName":"彰化縣","RegionName":"彰化市","Address":"台1線186.95公里","DeptNm":"彰化縣警察局","BranchNm":"彰化分局","Longitude":"120.58028","Latitude":"24.10111","direct":"北向","limit":"70"},{"CityName":"彰化縣","RegionName":"彰化市","Address":"彰化市縣139線7.7公里處","DeptNm":"彰化縣警察局","BranchNm":"彰化分局","Longitude":"120.59235","Latitude":"24.036015","direct":"南北雙向","limit":"40"},{"CityName":"彰化縣","RegionName":"彰化市","Address":"台74甲線3.4公里","DeptNm":"彰化縣警察局","BranchNm":"彰化分局","Longitude":"120.59366","Latitude":"24.07311","direct":"南向","limit":"70"},{"CityName":"彰化縣","RegionName":"彰化市","Address":"台74甲線2.2公里","DeptNm":"彰化縣警察局","BranchNm":"彰化分局","Longitude":"120.59444","Latitude":"24.08222","direct":"南北雙向","limit":"70"},{"CityName":"彰化縣","RegionName":"彰化市","Address":"台14線、福興路口","DeptNm":"彰化縣警察局","BranchNm":"彰化分局","Longitude":"120.62194","Latitude":"24.04528","direct":"東向","limit":"70"},{"CityName":"彰化縣","RegionName":"鹿港鎮","Address":"台61西部濱海快速公路北上177公里到168.1公里(區間測速)","DeptNm":"彰化縣警察局","BranchNm":"鹿港分局","Longitude":"120.42038","Latitude":"24.081823","direct":"往北","limit":"90"},{"CityName":"彰化縣","RegionName":"鹿港鎮","Address":"台17線31.7公里","DeptNm":"彰化縣警察局","BranchNm":"鹿港分局","Longitude":"120.44583","Latitude":"24.08639","direct":"北向","limit":"70"},{"CityName":"彰化縣","RegionName":"鹿港鎮","Address":"台17線31.3公里(長安宮前)","DeptNm":"彰化縣警察局","BranchNm":"鹿港分局","Longitude":"120.44806","Latitude":"24.09083","direct":"南北雙向","limit":"70"},{"CityName":"彰化縣","RegionName":"鹿港鎮","Address":"鹿港鎮鹿和路2段與鹿和路2段537巷口","DeptNm":"彰化縣警察局","BranchNm":"鹿港分局","Longitude":"120.460785","Latitude":"24.074808","direct":"東西雙向","limit":"60"},{"CityName":"彰化縣","RegionName":"和美鎮","Address":"線東路五段291號南側170公尺處","DeptNm":"彰化縣警察局","BranchNm":"和美分局","Longitude":"120.48998","Latitude":"24.12682","direct":"南北雙向","limit":"60"},{"CityName":"彰化縣","RegionName":"和美鎮","Address":"和美鎮和港路與西興路、北明路口","DeptNm":"彰化縣警察局","BranchNm":"和美分局","Longitude":"120.49588","Latitude":"24.114037","direct":"北向","limit":"60"},{"CityName":"彰化縣","RegionName":"和美鎮","Address":"和美鎮台61乙與彰新路6段路口","DeptNm":"彰化縣警察局","BranchNm":"和美分局","Longitude":"120.50728","Latitude":"24.149288","direct":"東西雙向","limit":"60"},{"CityName":"彰化縣","RegionName":"和美鎮","Address":"和美鎮濱海路與工一路口","DeptNm":"彰化縣警察局","BranchNm":"和美分局","Longitude":"120.5189","Latitude":"24.1529","direct":"路口科技執法","limit":"50"},{"CityName":"彰化縣","RegionName":"和美鎮","Address":"彰美、中興路口","DeptNm":"彰化縣警察局","BranchNm":"和美分局","Longitude":"120.52417","Latitude":"24.09917","direct":"西向","limit":"60"},{"CityName":"彰化縣","RegionName":"伸港鄉","Address":"伸港鄉濱海路與工五路口","DeptNm":"彰化縣警察局","BranchNm":"和美分局","Longitude":"120.51881","Latitude":"24.153168","direct":"東西雙向","limit":"60"},{"CityName":"彰化縣","RegionName":"福興鄉","Address":"福興鄉臨海路(台17線)與福正路口","DeptNm":"彰化縣警察局","BranchNm":"鹿港分局","Longitude":"120.420235","Latitude":"24.047426","direct":"南北雙向","limit":"70"},{"CityName":"彰化縣","RegionName":"福興鄉","Address":"沿海路、龍舟路路口","DeptNm":"彰化縣警察局","BranchNm":"鹿港分局","Longitude":"120.431015","Latitude":"24.048855","direct":"西向","limit":"50"},{"CityName":"彰化縣","RegionName":"福興鄉","Address":"福興鄉縣道144線與南環路口","DeptNm":"彰化縣警察局","BranchNm":"鹿港分局","Longitude":"120.44422","Latitude":"24.03323","direct":"東向","limit":"70"},{"CityName":"彰化縣","RegionName":"福興鄉","Address":"福興鄉彰鹿路6段與彰鹿路6段314巷路口","DeptNm":"彰化縣警察局","BranchNm":"鹿港分局","Longitude":"120.462975","Latitude":"24.046333","direct":"西向","limit":"60"},{"CityName":"彰化縣","RegionName":"福興鄉","Address":"台19線、番花路口","DeptNm":"彰化縣警察局","BranchNm":"鹿港分局","Longitude":"120.48861","Latitude":"24.01611","direct":"南向","limit":"60"},{"CityName":"彰化縣","RegionName":"秀水鄉","Address":"彰鹿路、民意街口","DeptNm":"彰化縣警察局","BranchNm":"鹿港分局","Longitude":"120.49667","Latitude":"24.050226","direct":"東西雙向","limit":"60"},{"CityName":"彰化縣","RegionName":"秀水鄉","Address":"彰水路1段台19線、安鶴路口","DeptNm":"彰化縣警察局","BranchNm":"鹿港分局","Longitude":"120.51111","Latitude":"24.05056","direct":"北向","limit":"60"},{"CityName":"彰化縣","RegionName":"花壇鄉","Address":"台1線194.496K(省道)","DeptNm":"彰化縣警察局","BranchNm":"彰化分局","Longitude":"120.53299","Latitude":"24.050976","direct":"南向","limit":"70"},{"CityName":"彰化縣","RegionName":"花壇鄉","Address":"台1線194.5公里","DeptNm":"彰化縣警察局","BranchNm":"彰化分局","Longitude":"120.533295","Latitude":"24.051216","direct":"南北雙向","limit":"70"},{"CityName":"彰化縣","RegionName":"花壇鄉","Address":"台1線198.4公里","DeptNm":"彰化縣警察局","BranchNm":"彰化分局","Longitude":"120.53889","Latitude":"24.02694","direct":"南北雙向","limit":"70"},{"CityName":"彰化縣","RegionName":"花壇鄉","Address":"中山路1段95號(福安宮前)","DeptNm":"彰化縣警察局","BranchNm":"彰化分局","Longitude":"120.54389","Latitude":"24.02167","direct":"北向","limit":"70"},{"CityName":"彰化縣","RegionName":"花壇鄉","Address":"花壇鄉台74甲線與灣福路口","DeptNm":"彰化縣警察局","BranchNm":"彰化分局","Longitude":"120.57299","Latitude":"24.031174","direct":"南北雙向","limit":"70"},{"CityName":"彰化縣","RegionName":"芬園鄉","Address":"彰化縣縣道139線8.537K處","DeptNm":"彰化縣警察局","BranchNm":"彰化分局","Longitude":"120.593895","Latitude":"24.03417","direct":"南北雙向","limit":"40"},{"CityName":"彰化縣","RegionName":"芬園鄉","Address":"芬園鄉大彰路與縣安路口","DeptNm":"彰化縣警察局","BranchNm":"彰化分局","Longitude":"120.62687","Latitude":"24.010653","direct":"東向","limit":"50"},{"CityName":"彰化縣","RegionName":"員林市","Address":"員林市員埔路與三潭巷路口","DeptNm":"彰化縣警察局","BranchNm":"員林分局","Longitude":"120.557594","Latitude":"23.971558","direct":"東西雙向","limit":"60"},{"CityName":"彰化縣","RegionName":"員林市","Address":"莒光路、員鹿路路口","DeptNm":"彰化縣警察局","BranchNm":"員林分局","Longitude":"120.56619","Latitude":"23.957155","direct":"南向","limit":"60"},{"CityName":"彰化縣","RegionName":"員林市","Address":"員林市萬年路3段與靜修路口","DeptNm":"彰化縣警察局","BranchNm":"員林分局","Longitude":"120.57383","Latitude":"23.962563","direct":"北向","limit":"50"},{"CityName":"彰化縣","RegionName":"員林市","Address":"員林大道(30米外環道)、員集路口","DeptNm":"彰化縣警察局","BranchNm":"員林分局","Longitude":"120.57598","Latitude":"23.947823","direct":"西向","limit":"50"},{"CityName":"彰化縣","RegionName":"員林市","Address":"員林市東彰路與員集路口","DeptNm":"彰化縣警察局","BranchNm":"員林分局","Longitude":"120.57929","Latitude":"23.92596","direct":"東西雙向","limit":"70"},{"CityName":"彰化縣","RegionName":"溪湖鎮","Address":"溪湖鎮彰水路台19線、海豐路口","DeptNm":"彰化縣警察局","BranchNm":"溪湖分局","Longitude":"120.48286","Latitude":"23.93747","direct":"南向","limit":"70"},{"CityName":"彰化縣","RegionName":"田中鎮","Address":"田中鎮斗中路與大社南路(彰95高鐵站連接道路)路口","DeptNm":"彰化縣警察局","BranchNm":"田中分局","Longitude":"120.57679","Latitude":"23.86265","direct":"西向","limit":"60"},{"CityName":"彰化縣","RegionName":"田中鎮","Address":"縣141線13.3公里南下","DeptNm":"彰化縣警察局","BranchNm":"田中分局","Longitude":"120.59444","Latitude":"23.84583","direct":"南向","limit":"60"},{"CityName":"彰化縣","RegionName":"大村鄉","Address":"台1線201.4公里","DeptNm":"彰化縣警察局","BranchNm":"員林分局","Longitude":"120.56194","Latitude":"23.94417","direct":"南北雙向","limit":"70"},{"CityName":"彰化縣","RegionName":"埔鹽鄉","Address":"埔鹽鄉彰水路二段與中山路口","DeptNm":"彰化縣警察局","BranchNm":"溪湖分局","Longitude":"120.47615","Latitude":"23.997437","direct":"北向","limit":"60"},{"CityName":"彰化縣","RegionName":"埔心鄉","Address":"埔心鄉員林大道(30米外環道)與員鹿路路口","DeptNm":"彰化縣警察局","BranchNm":"員林分局","Longitude":"120.56222","Latitude":"23.95708","direct":"南向","limit":"50"},{"CityName":"彰化縣","RegionName":"永靖鄉","Address":"永靖鄉中山路1段與中山路1段 351巷路口","DeptNm":"彰化縣警察局","BranchNm":"員林分局","Longitude":"120.54631","Latitude":"23.922073","direct":"南向","limit":"70"},{"CityName":"彰化縣","RegionName":"社頭鄉","Address":"社頭鄉員集路(縣141線)與崙饒口","DeptNm":"彰化縣警察局","BranchNm":"田中分局","Longitude":"120.576904","Latitude":"23.935686","direct":"南北雙向","limit":"50"},{"CityName":"彰化縣","RegionName":"社頭鄉","Address":"社頭鄉 中山路與和平三路口","DeptNm":"彰化縣警察局","BranchNm":"田中分局","Longitude":"120.58377","Latitude":"23.893862","direct":"南北雙向","limit":"60"},{"CityName":"彰化縣","RegionName":"社頭鄉","Address":"縣141線6.6公里北上","DeptNm":"彰化縣警察局","BranchNm":"田中分局","Longitude":"120.585","Latitude":"23.86278","direct":"北向","limit":"60"},{"CityName":"彰化縣","RegionName":"二水鄉","Address":"縣152線與二水鄉外環道(外環道路口)","DeptNm":"彰化縣警察局","BranchNm":"田中分局","Longitude":"120.61972","Latitude":"23.80611","direct":"南向","limit":"50"},{"CityName":"彰化縣","RegionName":"二水鄉","Address":"二水鄉縣141線21.594公里(二水鄉南通路二段398號對面)","DeptNm":"彰化縣警察局","BranchNm":"田中分局","Longitude":"120.62801","Latitude":"23.801483","direct":"南向","limit":"60"},{"CityName":"彰化縣","RegionName":"二水鄉","Address":"縣152線與二水鄉外環道(往名間方向)","DeptNm":"彰化縣警察局","BranchNm":"田中分局","Longitude":"120.67444","Latitude":"23.81694","direct":"南向","limit":"50"},{"CityName":"彰化縣","RegionName":"北斗鎮","Address":"斗苑路2段、斗苑路2段307巷口","DeptNm":"彰化縣警察局","BranchNm":"北斗分局","Longitude":"120.51024","Latitude":"23.878145","direct":"東西雙向","limit":"60"},{"CityName":"彰化縣","RegionName":"北斗鎮","Address":"北斗鎮中山路與斗苑路口","DeptNm":"彰化縣警察局","BranchNm":"北斗分局","Longitude":"120.51719","Latitude":"23.873512","direct":"南向","limit":"50"},{"CityName":"彰化縣","RegionName":"田尾鄉","Address":"台1線214.6公里南下","DeptNm":"彰化縣警察局","BranchNm":"北斗分局","Longitude":"120.50639","Latitude":"23.86167","direct":"南向","limit":"50"},{"CityName":"彰化縣","RegionName":"田尾鄉","Address":"台1線214公里北上","DeptNm":"彰化縣警察局","BranchNm":"北斗分局","Longitude":"120.50722","Latitude":"23.8625","direct":"北向","limit":"70"},{"CityName":"彰化縣","RegionName":"埤頭鄉","Address":"彰水路、庄子路口","DeptNm":"彰化縣警察局","BranchNm":"北斗分局","Longitude":"120.46079","Latitude":"23.894117","direct":"北向","limit":"70"},{"CityName":"彰化縣","RegionName":"埤頭鄉","Address":"台19線25.3公里北上東外環","DeptNm":"彰化縣警察局","BranchNm":"北斗分局","Longitude":"120.46972","Latitude":"23.89861","direct":"北向","limit":"70"},{"CityName":"彰化縣","RegionName":"埤頭鄉","Address":"埤頭鄉東環路與庄子路282巷路口","DeptNm":"彰化縣警察局","BranchNm":"田中分局","Longitude":"120.476715","Latitude":"23.896597","direct":"南向","limit":"70"},{"CityName":"彰化縣","RegionName":"埤頭鄉","Address":"埤頭鄉斗苑東路與中南路口","DeptNm":"彰化縣警察局","BranchNm":"北斗分局","Longitude":"120.47823","Latitude":"23.889475","direct":"西向","limit":"60"},{"CityName":"彰化縣","RegionName":"埤頭鄉","Address":"埤頭鄉縣152線16.5公里","DeptNm":"彰化縣警察局","BranchNm":"北斗分局","Longitude":"120.53134","Latitude":"23.832464","direct":"東西雙向","limit":"60"},{"CityName":"彰化縣","RegionName":"芳苑鄉","Address":"台17線與新上路口","DeptNm":"彰化縣警察局","BranchNm":"芳苑分局","Longitude":"120.311615","Latitude":"23.904112","direct":"南向","limit":"70"},{"CityName":"彰化縣","RegionName":"芳苑鄉","Address":"台17線59.3公里(芳苑鄉芳新路芳苑段801號)","DeptNm":"彰化縣警察局","BranchNm":"芳苑分局","Longitude":"120.32361","Latitude":"23.93417","direct":"南北雙向","limit":"70"},{"CityName":"彰化縣","RegionName":"芳苑鄉","Address":"台17線53.7公里","DeptNm":"彰化縣警察局","BranchNm":"芳苑分局","Longitude":"120.33472","Latitude":"23.95222","direct":"南北雙向","limit":"70"},{"CityName":"彰化縣","RegionName":"芳苑鄉","Address":"芳苑鄉斗苑路頂後段與路平路口","DeptNm":"彰化縣警察局","BranchNm":"芳苑分局","Longitude":"120.340614","Latitude":"23.910868","direct":"東西雙向","limit":"60"},{"CityName":"彰化縣","RegionName":"芳苑鄉","Address":"台17線、中正路口","DeptNm":"彰化縣警察局","BranchNm":"芳苑分局","Longitude":"120.34302","Latitude":"23.971603","direct":"北向","limit":"70"},{"CityName":"彰化縣","RegionName":"竹塘鄉","Address":"竹塘鄉中央路二段大湖路口","DeptNm":"彰化縣警察局","BranchNm":"北斗分局","Longitude":"120.42628","Latitude":"23.862356","direct":"南向","limit":"70"},{"CityName":"彰化縣","RegionName":"溪州鄉","Address":"台1線219.7公里(溪洲外環道)","DeptNm":"彰化縣警察局","BranchNm":"北斗分局","Longitude":"120.47028","Latitude":"23.83444","direct":"北向","limit":"70"},{"CityName":"彰化縣","RegionName":"溪州鄉","Address":"台1線218.4公里處(溪州鄉中山路4段287號)","DeptNm":"彰化縣警察局","BranchNm":"北斗分局","Longitude":"120.48311","Latitude":"23.848318","direct":"南北雙向","limit":"70"},{"CityName":"南投縣","RegionName":"南投市","Address":"139線35.95公里處","DeptNm":"南投縣政府警察局","BranchNm":"南投分局","Longitude":"120.637566","Latitude":"23.91971","direct":"北向南","limit":"50"},{"CityName":"南投縣","RegionName":"南投市","Address":"南投市139丙線0.5公里處","DeptNm":"南投縣政府警察局","BranchNm":"南投分局","Longitude":"120.66724","Latitude":"23.914396","direct":"南北雙向","limit":"50"},{"CityName":"南投縣","RegionName":"南投市","Address":"南投市南崗三路及成功三路口","DeptNm":"南投縣政府警察局","BranchNm":"南投分局","Longitude":"120.66728","Latitude":"23.930708","direct":"南北雙向","limit":"60"},{"CityName":"南投縣","RegionName":"南投市","Address":"華陽路850號前","DeptNm":"南投縣政府警察局","BranchNm":"南投分局","Longitude":"120.678246","Latitude":"23.930109","direct":"南北雙向","limit":"60"},{"CityName":"南投縣","RegionName":"南投市","Address":"南投市南崗一路與民族路口","DeptNm":"南投縣政府警察局","BranchNm":"南投分局","Longitude":"120.67985","Latitude":"23.90651","direct":"南北雙向","limit":"60"},{"CityName":"南投縣","RegionName":"南投市","Address":"東閔路1.35公里","DeptNm":"南投縣政府警察局","BranchNm":"中興分局","Longitude":"120.686226","Latitude":"23.93615","direct":"南北雙向","limit":"60"},{"CityName":"南投縣","RegionName":"南投市","Address":"臺3線215.5公里","DeptNm":"南投縣政府警察局","BranchNm":"南投分局","Longitude":"120.68987","Latitude":"23.888296","direct":"南北雙向","limit":"60"},{"CityName":"南投縣","RegionName":"南投市","Address":"南投市臺14乙線及南陽路口","DeptNm":"南投縣政府警察局","BranchNm":"南投分局","Longitude":"120.690674","Latitude":"23.907316","direct":"南北雙向","limit":"50"},{"CityName":"南投縣","RegionName":"南投市","Address":"名間鄉臺16線及臺3線路口","DeptNm":"南投縣政府警察局","BranchNm":"南投分局","Longitude":"120.71021","Latitude":"23.832108","direct":"東西雙向","limit":"60"},{"CityName":"南投縣","RegionName":"埔里鎮","Address":"臺21線49.9公里","DeptNm":"南投縣政府警察局","BranchNm":"埔里分局","Longitude":"120.93764","Latitude":"23.948853","direct":"南向北","limit":"60"},{"CityName":"南投縣","RegionName":"埔里鎮","Address":"埔里鎮中山路三段、鐵山路、大城路及蘭陽街口","DeptNm":"南投縣政府警察局","BranchNm":"埔里分局","Longitude":"120.94789","Latitude":"23.97118","direct":"東北雙向","limit":"50"},{"CityName":"南投縣","RegionName":"埔里鎮","Address":"埔里鎮信義路、中山路三段與南安路口闖紅燈、未依標線指示行駛及測速","DeptNm":"南投縣政府警察局","BranchNm":"埔里分局","Longitude":"120.95306","Latitude":"23.970133","direct":"東西雙向","limit":"50"},{"CityName":"南投縣","RegionName":"埔里鎮","Address":"埔里鎮和平東路與中正路口闖紅燈、違規停(臨)車、未依標線指示行駛、測速","DeptNm":"南投縣政府警察局","BranchNm":"埔里分局","Longitude":"120.97403","Latitude":"23.956371","direct":"東西雙向","limit":"50"},{"CityName":"南投縣","RegionName":"埔里鎮","Address":"埔里鎮中山路一段及信義路口","DeptNm":"南投縣政府警察局","BranchNm":"埔里分局","Longitude":"120.97911","Latitude":"23.9741","direct":"東西雙向","limit":"50"},{"CityName":"南投縣","RegionName":"草屯鎮","Address":"臺14乙線5.9公里","DeptNm":"南投縣政府警察局","BranchNm":"草屯分局","Longitude":"120.65508","Latitude":"23.963615","direct":"南北雙向","limit":"70"},{"CityName":"南投縣","RegionName":"草屯鎮","Address":"草屯鎮新豐路、博愛路及仁愛街口","DeptNm":"南投縣政府警察局","BranchNm":"草屯分局","Longitude":"120.67889","Latitude":"23.986898","direct":"東西雙向","limit":"60"},{"CityName":"南投縣","RegionName":"草屯鎮","Address":"臺63甲線1.2公里","DeptNm":"南投縣政府警察局","BranchNm":"草屯分局","Longitude":"120.67963","Latitude":"23.996204","direct":"南北雙向","limit":"60"},{"CityName":"南投縣","RegionName":"草屯鎮","Address":"草屯鎮成功路、草溪路及中興路口","DeptNm":"南投縣政府警察局","BranchNm":"草屯分局","Longitude":"120.68033","Latitude":"23.974607","direct":"南北雙向","limit":"60"},{"CityName":"南投縣","RegionName":"草屯鎮","Address":"草屯鎮成功路及博愛路口","DeptNm":"南投縣政府警察局","BranchNm":"草屯分局","Longitude":"120.68294","Latitude":"23.986221","direct":"西南雙向","limit":"60"},{"CityName":"南投縣","RegionName":"草屯鎮","Address":"草屯鎮臺3甲、太平路及中興路口","DeptNm":"南投縣政府警察局","BranchNm":"草屯分局","Longitude":"120.68397","Latitude":"23.974297","direct":"東西雙向","limit":"50"},{"CityName":"南投縣","RegionName":"草屯鎮","Address":"草屯鎮中正路與博愛路口","DeptNm":"南投縣政府警察局","BranchNm":"草屯分局","Longitude":"120.68671","Latitude":"23.98525","direct":"東西雙向","limit":"60"},{"CityName":"南投縣","RegionName":"草屯鎮","Address":"草屯鎮富林路一段579號","DeptNm":"南投縣政府警察局","BranchNm":"草屯分局","Longitude":"120.69073","Latitude":"23.971088","direct":"東西雙向","limit":"40"},{"CityName":"南投縣","RegionName":"草屯鎮","Address":"草屯鎮中正路與大覺路口","DeptNm":"南投縣政府警察局","BranchNm":"草屯分局","Longitude":"120.69453","Latitude":"24.004614","direct":"南北雙向","limit":"60"},{"CityName":"南投縣","RegionName":"草屯鎮","Address":"臺14線富功國小前","DeptNm":"南投縣政府警察局","BranchNm":"草屯分局","Longitude":"120.69843","Latitude":"23.97888","direct":"東向西","limit":"50"},{"CityName":"南投縣","RegionName":"草屯鎮","Address":"東草屯交流道永安路1.8公里闖紅燈、未依標線指示行駛及測速","DeptNm":"南投縣政府警察局","BranchNm":"草屯分局","Longitude":"120.722466","Latitude":"23.996405","direct":"南北雙向","limit":"50"},{"CityName":"南投縣","RegionName":"竹山鎮","Address":"大明路與前山路口闖紅燈及未依標線指示行駛","DeptNm":"南投縣政府警察局","BranchNm":"竹山分局","Longitude":"120.6793","Latitude":"23.757366","direct":"南向北","limit":"60"},{"CityName":"南投縣","RegionName":"竹山鎮","Address":"竹山鎮集山路三段與大智路口","DeptNm":"南投縣政府警察局","BranchNm":"竹山分局","Longitude":"120.69381","Latitude":"23.7613","direct":"東西雙向","limit":"60"},{"CityName":"南投縣","RegionName":"竹山鎮","Address":"社寮產業運輸道路2.15公里處","DeptNm":"南投縣政府警察局","BranchNm":"竹山分局","Longitude":"120.705376","Latitude":"23.808374","direct":"南北雙向","limit":"40"},{"CityName":"南投縣","RegionName":"竹山鎮","Address":"臺3線227.7公里","DeptNm":"南投縣政府警察局","BranchNm":"竹山分局","Longitude":"120.70938","Latitude":"23.789066","direct":"南北雙向","limit":"60"},{"CityName":"南投縣","RegionName":"竹山鎮","Address":"社寮產業運輸道路4.5公里處","DeptNm":"南投縣政府警察局","BranchNm":"竹山分局","Longitude":"120.72166","Latitude":"23.82349","direct":"南北雙向","limit":"40"},{"CityName":"南投縣","RegionName":"集集鎮","Address":"臺16線2.37公里","DeptNm":"南投縣政府警察局","BranchNm":"集集分局","Longitude":"120.730965","Latitude":"23.834896","direct":"東西雙向","limit":"70"},{"CityName":"南投縣","RegionName":"集集鎮","Address":"臺16線4.8公里闖紅燈、未依標線指示行駛及測速","DeptNm":"南投縣政府警察局","BranchNm":"集集分局","Longitude":"120.75247","Latitude":"23.828299","direct":"東向西","limit":"70"},{"CityName":"南投縣","RegionName":"鹿谷鄉","Address":"鹿谷鄉151線10.07公里處","DeptNm":"南投縣政府警察局","BranchNm":"竹山分局","Longitude":"120.768555","Latitude":"23.73256","direct":"南北雙向","limit":"50"},{"CityName":"南投縣","RegionName":"中寮鄉","Address":"中寮鄉139線47.5公里處","DeptNm":"南投縣政府警察局","BranchNm":"草屯分局","Longitude":"120.71774","Latitude":"23.894646","direct":"東西雙向","limit":"50"},{"CityName":"南投縣","RegionName":"魚池鄉","Address":"魚池鄉臺21線53.9K至51.1K(區間測速)","DeptNm":"南投縣政府警察局","BranchNm":"集集分局","Longitude":"120.92913","Latitude":"23.94172","direct":"南北雙向","limit":"60"},{"CityName":"南投縣","RegionName":"國姓鄉","Address":"國姓鄉臺14線40.1公里處","DeptNm":"南投縣政府警察局","BranchNm":"埔里分局","Longitude":"120.84806","Latitude":"24.01532","direct":"南北雙向","limit":"70"},{"CityName":"南投縣","RegionName":"水里鄉","Address":"水里鄉臺16線27.5公里","DeptNm":"南投縣政府警察局","BranchNm":"集集分局","Longitude":"120.927956","Latitude":"23.79456","direct":"南北","limit":"30"},{"CityName":"南投縣","RegionName":"信義鄉","Address":"臺21線93.1公里處(臺21線與敦福路口)","DeptNm":"南投縣政府警察局","BranchNm":"信義分局","Longitude":"120.87654","Latitude":"23.662935","direct":"南向北","limit":"50"},{"CityName":"南投縣","RegionName":"仁愛鄉","Address":"仁愛鄉臺14線70.7公里處","DeptNm":"南投縣政府警察局","BranchNm":"仁愛分局","Longitude":"121.084465","Latitude":"24.002531","direct":"東西雙向","limit":"50"},{"CityName":"南投縣","RegionName":"仁愛鄉","Address":"臺14甲線7.95公里處","DeptNm":"南投縣政府警察局","BranchNm":"仁愛分局","Longitude":"121.15568","Latitude":"24.045826","direct":"北向南","limit":"30"},{"CityName":"雲林縣","RegionName":"","Address":"臺61線南下218k+250m至226k+250m(區間平均速率自動偵測照相系統路段)","DeptNm":"雲林縣警察局","BranchNm":"臺西分局","Longitude":"120.27286","Latitude":"23.774952","direct":"南下","limit":"90"},{"CityName":"雲林縣","RegionName":"斗六市","Address":"斗六市明德路與公明路路口","DeptNm":"雲林縣警察局","BranchNm":"斗六分局","Longitude":"120.532234","Latitude":"23.69978","direct":"東向西","limit":"50"},{"CityName":"雲林縣","RegionName":"斗六市","Address":"大學路與雲林科技大學前路口","DeptNm":"雲林縣警察局","BranchNm":"斗六分局","Longitude":"120.53308","Latitude":"23.695944","direct":"西向東","limit":"60"},{"CityName":"雲林縣","RegionName":"斗六市","Address":"斗六市大學路與中山路路口","DeptNm":"雲林縣警察局","BranchNm":"斗六分局","Longitude":"120.53748","Latitude":"23.696798","direct":"西向東","limit":"60"},{"CityName":"雲林縣","RegionName":"斗六市","Address":"斗六市大學路與鎮南路路口","DeptNm":"雲林縣警察局","BranchNm":"斗六分局","Longitude":"120.542336","Latitude":"23.697744","direct":"西向東","limit":"60"},{"CityName":"雲林縣","RegionName":"斗六市","Address":"台3線公路252k+65m處","DeptNm":"雲林縣警察局","BranchNm":"斗六分局","Longitude":"120.54649","Latitude":"23.699762","direct":"南向北","limit":"60"},{"CityName":"雲林縣","RegionName":"斗六市","Address":"斗六市明德北路與育英北街路口","DeptNm":"雲林縣警察局","BranchNm":"斗六分局","Longitude":"120.55062","Latitude":"23.717327","direct":"東向西","limit":"60"},{"CityName":"雲林縣","RegionName":"斗六市","Address":"154乙縣道13k+200m處(環科大前)","DeptNm":"雲林縣警察局","BranchNm":"斗六分局","Longitude":"120.55256","Latitude":"23.680202","direct":"南北雙向","limit":"60"},{"CityName":"雲林縣","RegionName":"斗六市","Address":"斗六市台3線公路與成功路口","DeptNm":"雲林縣警察局","BranchNm":"斗六分局","Longitude":"120.55346","Latitude":"23.702805","direct":"南向北","limit":"70"},{"CityName":"雲林縣","RegionName":"斗六市","Address":"斗六市雲科路一段與科班路路口(158縣道43.7K)","DeptNm":"雲林縣警察局","BranchNm":"斗六分局","Longitude":"120.56408","Latitude":"23.73015","direct":"西向東","limit":"50"},{"CityName":"雲林縣","RegionName":"斗六市","Address":"台3線公路248k+970m處","DeptNm":"雲林縣警察局","BranchNm":"斗六分局","Longitude":"120.568954","Latitude":"23.717222","direct":"南向北","limit":"60"},{"CityName":"雲林縣","RegionName":"斗南鎮","Address":"台78線快速公路29k+400m處(西向東)","DeptNm":"雲林縣警察局","BranchNm":"斗南分局","Longitude":"120.45189","Latitude":"23.673025","direct":"西向東","limit":"100"},{"CityName":"雲林縣","RegionName":"斗南鎮","Address":"台78線快速公路29k+400m處(東向西)","DeptNm":"雲林縣警察局","BranchNm":"斗南分局","Longitude":"120.45193","Latitude":"23.67321","direct":"東向西","limit":"100"},{"CityName":"雲林縣","RegionName":"斗南鎮","Address":"斗南鎮延平路與大同路路口","DeptNm":"雲林縣警察局","BranchNm":"斗南分局","Longitude":"120.47628","Latitude":"23.676558","direct":"南向北","limit":"50"},{"CityName":"雲林縣","RegionName":"斗南鎮","Address":"斗南鎮延平路與大業路路口","DeptNm":"雲林縣警察局","BranchNm":"斗南分局","Longitude":"120.479965","Latitude":"23.69333","direct":"南向北","limit":"50"},{"CityName":"雲林縣","RegionName":"斗南鎮","Address":"斗南鎮延平路與光華路路口","DeptNm":"雲林縣警察局","BranchNm":"斗南分局","Longitude":"120.48054","Latitude":"23.68612","direct":"北向南","limit":"50"},{"CityName":"雲林縣","RegionName":"斗南鎮","Address":"台1線公路與文昌路口(南向北)","DeptNm":"雲林縣警察局","BranchNm":"斗南分局","Longitude":"120.480835","Latitude":"23.679546","direct":"南向北","limit":"60"},{"CityName":"雲林縣","RegionName":"斗南鎮","Address":"台1線公路與文昌路口(北向南)","DeptNm":"雲林縣警察局","BranchNm":"斗南分局","Longitude":"120.48086","Latitude":"23.68034","direct":"北向南","limit":"60"},{"CityName":"雲林縣","RegionName":"斗南鎮","Address":"斗南鎮台1丁線12k+800m(新光陸橋-斗南往斗六)","DeptNm":"雲林縣警察局","BranchNm":"斗南分局","Longitude":"120.49234","Latitude":"23.68357","direct":"西向東","limit":"60"},{"CityName":"雲林縣","RegionName":"斗南鎮","Address":"斗南鎮新生二路東明橋北端","DeptNm":"雲林縣警察局","BranchNm":"斗南分局","Longitude":"120.49306","Latitude":"23.683113","direct":"南向北","limit":"50"},{"CityName":"雲林縣","RegionName":"斗南鎮","Address":"斗南鎮台1丁線12k+700m(新光陸橋東側-斗六往斗南)","DeptNm":"雲林縣警察局","BranchNm":"斗南分局","Longitude":"120.49349","Latitude":"23.683903","direct":"東向西","limit":"60"},{"CityName":"雲林縣","RegionName":"虎尾鎮","Address":"科虎三路18號(元翎科技公司)","DeptNm":"保二總隊","BranchNm":"保二三大隊","Longitude":"120.396","Latitude":"23.736464","direct":"北往南","limit":"60"},{"CityName":"雲林縣","RegionName":"虎尾鎮","Address":"虎尾鎮文科路與廉使路路口","DeptNm":"雲林縣警察局","BranchNm":"虎尾分局","Longitude":"120.42356","Latitude":"23.717049","direct":"西向東","limit":"60"},{"CityName":"雲林縣","RegionName":"虎尾鎮","Address":"158縣道與博愛路口","DeptNm":"雲林縣警察局","BranchNm":"虎尾分局","Longitude":"120.43605","Latitude":"23.719143","direct":"西向東","limit":"60"},{"CityName":"雲林縣","RegionName":"虎尾鎮","Address":"158縣道與林森路一段路口","DeptNm":"雲林縣警察局","BranchNm":"虎尾分局","Longitude":"120.44133","Latitude":"23.717178","direct":"東向西","limit":"60"},{"CityName":"雲林縣","RegionName":"虎尾鎮","Address":"虎尾鎮文科路與光復路路口","DeptNm":"雲林縣警察局","BranchNm":"虎尾分局","Longitude":"120.44583","Latitude":"23.709593","direct":"西向東","limit":"60"},{"CityName":"雲林縣","RegionName":"虎尾鎮","Address":"145乙縣道與雲71線路口前(東向西)","DeptNm":"雲林縣警察局","BranchNm":"虎尾分局","Longitude":"120.458275","Latitude":"23.735708","direct":"東向西","limit":"60"},{"CityName":"雲林縣","RegionName":"虎尾鎮","Address":"台1線公路與雲74線路口(惠來派出所前)","DeptNm":"雲林縣警察局","BranchNm":"虎尾分局","Longitude":"120.488914","Latitude":"23.728313","direct":"南北雙向","limit":"70"},{"CityName":"雲林縣","RegionName":"西螺鎮","Address":"154甲縣道1k處(高鐵橋下)","DeptNm":"雲林縣警察局","BranchNm":"西螺分局","Longitude":"120.43022","Latitude":"23.785646","direct":"東西雙向","limit":"60"},{"CityName":"雲林縣","RegionName":"西螺鎮","Address":"145縣道與福來路20巷路口(12.6k處-北向)","DeptNm":"雲林縣警察局","BranchNm":"西螺分局","Longitude":"120.44506","Latitude":"23.778845","direct":"南向北","limit":"60"},{"CityName":"雲林縣","RegionName":"西螺鎮","Address":"西螺鎮大同路與興農東(西)路口","DeptNm":"雲林縣警察局","BranchNm":"西螺分局","Longitude":"120.46766","Latitude":"23.795057","direct":"東西雙向","limit":"50"},{"CityName":"雲林縣","RegionName":"西螺鎮","Address":"台1線公路與振興路口(北向南)","DeptNm":"雲林縣警察局","BranchNm":"西螺分局","Longitude":"120.47047","Latitude":"23.790655","direct":"北向南","limit":"50"},{"CityName":"雲林縣","RegionName":"西螺鎮","Address":"台1線公路與振興路口(南向北)","DeptNm":"雲林縣警察局","BranchNm":"西螺分局","Longitude":"120.47076","Latitude":"23.79007","direct":"南向北","limit":"50"},{"CityName":"雲林縣","RegionName":"土庫鎮","Address":"158縣道18k處","DeptNm":"雲林縣警察局","BranchNm":"虎尾分局","Longitude":"120.35221","Latitude":"23.701073","direct":"西向東","limit":"70"},{"CityName":"雲林縣","RegionName":"土庫鎮","Address":"145縣道29k處(土庫外環道)","DeptNm":"雲林縣警察局","BranchNm":"虎尾分局","Longitude":"120.38855","Latitude":"23.670492","direct":"南北雙向","limit":"60"},{"CityName":"雲林縣","RegionName":"土庫鎮","Address":"土庫鎮建國路與林森路路口","DeptNm":"雲林縣警察局","BranchNm":"虎尾分局","Longitude":"120.395","Latitude":"23.679155","direct":"南向北","limit":"50"},{"CityName":"雲林縣","RegionName":"北港鎮","Address":"台19線公路與145線道路口","DeptNm":"雲林縣警察局","BranchNm":"北港分局","Longitude":"120.2994","Latitude":"23.583763","direct":"北向南","limit":"50"},{"CityName":"雲林縣","RegionName":"北港鎮","Address":"北港鎮145縣道40k+750m處","DeptNm":"雲林縣警察局","BranchNm":"北港分局","Longitude":"120.32356","Latitude":"23.596136","direct":"南北雙向","limit":"60"},{"CityName":"雲林縣","RegionName":"大埤鄉","Address":"大埤鄉157線公路2k+130m","DeptNm":"雲林縣警察局","BranchNm":"斗南分局","Longitude":"120.45549","Latitude":"23.658314","direct":"南北雙向","limit":"60"},{"CityName":"雲林縣","RegionName":"大埤鄉","Address":"台1線公路247k+500m處(豐田段)","DeptNm":"雲林縣警察局","BranchNm":"斗南分局","Longitude":"120.46827","Latitude":"23.63372","direct":"南向北","limit":"70"},{"CityName":"雲林縣","RegionName":"大埤鄉","Address":"台1線公路246k+400m處(豐田段)","DeptNm":"雲林縣警察局","BranchNm":"斗南分局","Longitude":"120.46946","Latitude":"23.639185","direct":"北向南","limit":"70"},{"CityName":"雲林縣","RegionName":"莿桐鄉","Address":"台1線公路235k+592m處","DeptNm":"雲林縣警察局","BranchNm":"斗六分局","Longitude":"120.494446","Latitude":"23.742592","direct":"南北雙向","limit":"60"},{"CityName":"雲林縣","RegionName":"莿桐鄉","Address":"台1線公路與中正路口","DeptNm":"雲林縣警察局","BranchNm":"斗六分局","Longitude":"120.49677","Latitude":"23.75775","direct":"北向南","limit":"70"},{"CityName":"雲林縣","RegionName":"莿桐鄉","Address":"156縣道與莿桐外環道(孩沙里)路口","DeptNm":"雲林縣警察局","BranchNm":"斗六分局","Longitude":"120.506424","Latitude":"23.766708","direct":"北向南","limit":"60"},{"CityName":"雲林縣","RegionName":"莿桐鄉","Address":"台1丁線公路與農校路口","DeptNm":"雲林縣警察局","BranchNm":"斗六分局","Longitude":"120.508675","Latitude":"23.750402","direct":"北向南","limit":"60"},{"CityName":"雲林縣","RegionName":"林內鄉","Address":"台3線公路238k+268m處","DeptNm":"雲林縣警察局","BranchNm":"斗六分局","Longitude":"120.644","Latitude":"23.770504","direct":"南向北","limit":"60"},{"CityName":"雲林縣","RegionName":"二崙鄉","Address":"二崙鄉台19線公路40km+200m","DeptNm":"雲林縣警察局","BranchNm":"西螺分局","Longitude":"120.38286","Latitude":"23.800879","direct":"南北雙向","limit":"60"},{"CityName":"雲林縣","RegionName":"二崙鄉","Address":"二崙鄉裕民路","DeptNm":"雲林縣警察局","BranchNm":"西螺分局","Longitude":"120.40996","Latitude":"23.755796","direct":"南北雙向","limit":"50"},{"CityName":"雲林縣","RegionName":"崙背鄉","Address":"崙背鄉156縣道7k+700m","DeptNm":"雲林縣警察局","BranchNm":"西螺分局","Longitude":"120.33265","Latitude":"23.767534","direct":"東西雙向","limit":"60"},{"CityName":"雲林縣","RegionName":"麥寮鄉","Address":"雲3線海豐村忠和路131號前","DeptNm":"雲林縣警察局","BranchNm":"臺西分局","Longitude":"120.22894","Latitude":"23.77376","direct":"南北雙向","limit":"60"},{"CityName":"雲林縣","RegionName":"麥寮鄉","Address":"工業路與雲3號路口(西向東)","DeptNm":"雲林縣警察局","BranchNm":"臺西分局","Longitude":"120.2346","Latitude":"23.792048","direct":"西向東","limit":"60"},{"CityName":"雲林縣","RegionName":"麥寮鄉","Address":"工業路與4k+500m處路口","DeptNm":"雲林縣警察局","BranchNm":"臺西分局","Longitude":"120.23678","Latitude":"23.79157","direct":"西向東","limit":"70"},{"CityName":"雲林縣","RegionName":"麥寮鄉","Address":"麥寮鄉台17線公路與工業路口","DeptNm":"雲林縣警察局","BranchNm":"臺西分局","Longitude":"120.27038","Latitude":"23.789198","direct":"西向東","limit":"70"},{"CityName":"雲林縣","RegionName":"麥寮鄉","Address":"台17線公路與工業路口","DeptNm":"雲林縣警察局","BranchNm":"臺西分局","Longitude":"120.271","Latitude":"23.788769","direct":"南向北","limit":"60"},{"CityName":"雲林縣","RegionName":"麥寮鄉","Address":"台17線公路與154縣道路口(橋頭)","DeptNm":"雲林縣警察局","BranchNm":"臺西分局","Longitude":"120.278656","Latitude":"23.796333","direct":"北向南","limit":"60"},{"CityName":"雲林縣","RegionName":"東勢鄉","Address":"雲113公路湖東橋前路段","DeptNm":"雲林縣警察局","BranchNm":"臺西分局","Longitude":"120.24066","Latitude":"23.655548","direct":"東向西","limit":"60"},{"CityName":"雲林縣","RegionName":"東勢鄉","Address":"新坤路與158甲縣道路口","DeptNm":"雲林縣警察局","BranchNm":"臺西分局","Longitude":"120.253296","Latitude":"23.721405","direct":"北向南","limit":"60"},{"CityName":"雲林縣","RegionName":"東勢鄉","Address":"153縣道1k處","DeptNm":"雲林縣警察局","BranchNm":"臺西分局","Longitude":"120.25528","Latitude":"23.738638","direct":"北向南","limit":"60"},{"CityName":"雲林縣","RegionName":"東勢鄉","Address":"東勢鄉153縣道與158甲縣道路口","DeptNm":"雲林縣警察局","BranchNm":"臺西分局","Longitude":"120.25655","Latitude":"23.721605","direct":"北向南","limit":"60"},{"CityName":"雲林縣","RegionName":"東勢鄉","Address":"153線與158甲線縣道路口","DeptNm":"雲林縣警察局","BranchNm":"臺西分局","Longitude":"120.25662","Latitude":"23.720882","direct":"南向北","limit":"60"},{"CityName":"雲林縣","RegionName":"東勢鄉","Address":"153縣道嘉勝路與守密街路口(南向)","DeptNm":"雲林縣警察局","BranchNm":"臺西分局","Longitude":"120.25901","Latitude":"23.665485","direct":"北向南","limit":"50"},{"CityName":"雲林縣","RegionName":"東勢鄉","Address":"台78線快速公路13k處(西向東)","DeptNm":"雲林縣警察局","BranchNm":"臺西分局","Longitude":"120.30067","Latitude":"23.684862","direct":"西向東","limit":"100"},{"CityName":"雲林縣","RegionName":"東勢鄉","Address":"台78線快速公路13k處(東向西)","DeptNm":"雲林縣警察局","BranchNm":"臺西分局","Longitude":"120.3066","Latitude":"23.685007","direct":"東向西","limit":"100"},{"CityName":"雲林縣","RegionName":"褒忠鄉","Address":"台19線公路53k+500m處","DeptNm":"雲林縣警察局","BranchNm":"虎尾分局","Longitude":"120.324425","Latitude":"23.708206","direct":"南北雙向","limit":"70"},{"CityName":"雲林縣","RegionName":"臺西鄉","Address":"155縣道民權路47-8號前","DeptNm":"雲林縣警察局","BranchNm":"臺西分局","Longitude":"120.20016","Latitude":"23.703785","direct":"北向南","limit":"50"},{"CityName":"雲林縣","RegionName":"臺西鄉","Address":"155縣道4k+800m處","DeptNm":"雲林縣警察局","BranchNm":"臺西分局","Longitude":"120.20882","Latitude":"23.669996","direct":"南北雙向","limit":"60"},{"CityName":"雲林縣","RegionName":"臺西鄉","Address":"臺西鄉台61線快速道路226K+850m","DeptNm":"雲林縣警察局","BranchNm":"臺西分局","Longitude":"120.220314","Latitude":"23.727283","direct":"北向","limit":"90"},{"CityName":"雲林縣","RegionName":"元長鄉","Address":"元長鄉台19線64k+450m","DeptNm":"雲林縣警察局","BranchNm":"虎尾分局","Longitude":"120.30748","Latitude":"23.611443","direct":"南北雙向","limit":"60"},{"CityName":"雲林縣","RegionName":"元長鄉","Address":"160縣道20k+947m處(子茂段)","DeptNm":"雲林縣警察局","BranchNm":"虎尾分局","Longitude":"120.337105","Latitude":"23.658632","direct":"東西雙向","limit":"60"},{"CityName":"雲林縣","RegionName":"四湖鄉","Address":"155線四湖國中前","DeptNm":"雲林縣警察局","BranchNm":"臺西分局","Longitude":"120.22754","Latitude":"23.630302","direct":"北向南","limit":"60"},{"CityName":"雲林縣","RegionName":"口湖鄉","Address":"口湖鄉台61線快速道路246K+100m","DeptNm":"雲林縣警察局","BranchNm":"北港分局","Longitude":"120.15164","Latitude":"23.585243","direct":"南向","limit":"90"},{"CityName":"雲林縣","RegionName":"口湖鄉","Address":"台17線公路97k+842m處","DeptNm":"雲林縣警察局","BranchNm":"北港分局","Longitude":"120.16689","Latitude":"23.623926","direct":"南北雙向","limit":"70"},{"CityName":"嘉義縣","RegionName":"太保市","Address":"台18線1.5K(往西)","DeptNm":"嘉義縣警察局","BranchNm":"嘉縣警局交通隊","Longitude":"120.32873","Latitude":"23.472519","direct":"由東向西","limit":"70"},{"CityName":"嘉義縣","RegionName":"太保市","Address":"太保市159線與嘉64線路口","DeptNm":"嘉義縣警察局","BranchNm":"","Longitude":"120.38451","Latitude":"23.496267","direct":"雙向","limit":"50"},{"CityName":"嘉義縣","RegionName":"朴子市","Address":"朴子市光復新路與台19線路口","DeptNm":"嘉義縣警察局","BranchNm":"嘉縣警局交通隊","Longitude":"120.24383","Latitude":"23.455318","direct":"雙向","limit":"50"},{"CityName":"嘉義縣","RegionName":"朴子市","Address":"朴子市168線與157線路口","DeptNm":"嘉義縣警察局","BranchNm":"嘉縣警局交通隊","Longitude":"120.254814","Latitude":"23.46616","direct":"由西往東","limit":"50"},{"CityName":"嘉義縣","RegionName":"大林鎮","Address":"大林鎮台1線與中山路口","DeptNm":"嘉義縣警察局","BranchNm":"嘉縣警局交通隊","Longitude":"120.45609","Latitude":"23.606342","direct":"雙向","limit":"50"},{"CityName":"嘉義縣","RegionName":"大林鎮","Address":"大林鎮162線10.953K","DeptNm":"嘉義縣警察局","BranchNm":"嘉縣警局交通隊","Longitude":"120.4908","Latitude":"23.604876","direct":"東西雙向","limit":"60"},{"CityName":"嘉義縣","RegionName":"民雄鄉","Address":"民雄鄉164線與嘉81路口","DeptNm":"嘉義縣警察局","BranchNm":"嘉縣警局交通隊","Longitude":"120.42705","Latitude":"23.549925","direct":"雙向","limit":"60"},{"CityName":"嘉義縣","RegionName":"民雄鄉","Address":"民雄鄉台1線258K與東榮路口","DeptNm":"嘉義縣警察局","BranchNm":"嘉縣警局交通隊","Longitude":"120.43358","Latitude":"23.557116","direct":"由南往北","limit":"50"},{"CityName":"嘉義縣","RegionName":"民雄鄉","Address":"民雄鄉台1線與164線路口","DeptNm":"嘉義縣警察局","BranchNm":"嘉縣警局交通隊","Longitude":"120.43407","Latitude":"23.549187","direct":"雙向","limit":"50"},{"CityName":"嘉義縣","RegionName":"民雄鄉","Address":"民雄鄉台1線255.5K(鎮北段)","DeptNm":"嘉義縣警察局","BranchNm":"嘉縣警局交通隊","Longitude":"120.43957","Latitude":"23.578737","direct":"南北雙向","limit":"70"},{"CityName":"嘉義縣","RegionName":"民雄鄉","Address":"民雄鄉台1線與中山路工業一路口","DeptNm":"嘉義縣警察局","BranchNm":"嘉縣警局交通隊","Longitude":"120.440254","Latitude":"23.520376","direct":"北向南","limit":"50"},{"CityName":"嘉義縣","RegionName":"民雄鄉","Address":"民雄鄉166線與嘉109線路口","DeptNm":"嘉義縣警察局","BranchNm":"嘉縣警局交通隊","Longitude":"120.47472","Latitude":"23.522432","direct":"雙向","limit":"50"},{"CityName":"嘉義縣","RegionName":"新港鄉","Address":"159線新港鄉南壇斷水月橋","DeptNm":"嘉義縣警察局","BranchNm":"嘉縣警局交通隊","Longitude":"120.32311","Latitude":"23.560371","direct":"東向西","limit":"60"},{"CityName":"嘉義縣","RegionName":"新港鄉","Address":"159線南壇段水月橋","DeptNm":"嘉義縣警察局","BranchNm":"民雄分局","Longitude":"120.32498","Latitude":"23.560232","direct":"由東向西","limit":"60"},{"CityName":"嘉義縣","RegionName":"新港鄉","Address":"新港鄉159線與166線路口","DeptNm":"嘉義縣警察局","BranchNm":"嘉縣警局交通隊","Longitude":"120.35586","Latitude":"23.523249","direct":"南向北","limit":"60"},{"CityName":"嘉義縣","RegionName":"六腳鄉","Address":"台19線73.1K(六美國小)","DeptNm":"嘉義縣警察局","BranchNm":"朴子分局","Longitude":"120.292694","Latitude":"23.539839","direct":"由南向北","limit":"50"},{"CityName":"嘉義縣","RegionName":"東石鄉","Address":"台61線東石鄉264.336K處(往北)","DeptNm":"嘉義縣警察局","BranchNm":"嘉縣警局交通隊","Longitude":"120.16569","Latitude":"23.441223","direct":"往北","limit":"90"},{"CityName":"嘉義縣","RegionName":"東石鄉","Address":"台61線東石鄉257.31K處(往南)","DeptNm":"嘉義縣警察局","BranchNm":"嘉縣警局交通隊","Longitude":"120.17244","Latitude":"23.503832","direct":"往南","limit":"90"},{"CityName":"嘉義縣","RegionName":"東石鄉","Address":"台82線4.65K","DeptNm":"嘉義縣警察局","BranchNm":"朴子分局","Longitude":"120.19099","Latitude":"23.45666","direct":"雙向","limit":"70"},{"CityName":"嘉義縣","RegionName":"東石鄉","Address":"東石鄉157線與嘉7線路口","DeptNm":"嘉義縣警察局","BranchNm":"嘉縣警局交通隊","Longitude":"120.21225","Latitude":"23.462511","direct":"雙向","limit":"50"},{"CityName":"嘉義縣","RegionName":"水上鄉","Address":"水上鄉台1線277.51K(南靖段)","DeptNm":"嘉義縣警察局","BranchNm":"嘉縣警局交通隊","Longitude":"120.38366","Latitude":"23.40862","direct":"南北雙向","limit":"70"},{"CityName":"嘉義縣","RegionName":"水上鄉","Address":"水上鄉台1線275.3K龍德路口","DeptNm":"嘉義縣警察局","BranchNm":"水上分局","Longitude":"120.39391","Latitude":"23.426891","direct":"由北往南","limit":"50"},{"CityName":"嘉義縣","RegionName":"水上鄉","Address":"水上鄉台1線與168線路口","DeptNm":"嘉義縣警察局","BranchNm":"","Longitude":"120.39813","Latitude":"23.433348","direct":"雙向","limit":"50"},{"CityName":"嘉義縣","RegionName":"中埔鄉","Address":"中埔鄉忠義路與大義路口","DeptNm":"嘉義縣警察局","BranchNm":"嘉縣警局交通隊","Longitude":"120.47146","Latitude":"23.459585","direct":"雙向","limit":"50"},{"CityName":"嘉義縣","RegionName":"中埔鄉","Address":"番路鄉台18線30.02K日安社區路口","DeptNm":"嘉義縣警察局","BranchNm":"中埔分局","Longitude":"120.56846","Latitude":"23.45109","direct":"由東往西","limit":"60"},{"CityName":"嘉義縣","RegionName":"中埔鄉","Address":"中埔鄉台3線305.8K","DeptNm":"嘉義縣警察局","BranchNm":"","Longitude":"120.57901","Latitude":"23.382618","direct":"雙向","limit":"40"},{"CityName":"嘉義縣","RegionName":"梅山鄉","Address":"台3線272.2K(大南國小)","DeptNm":"嘉義縣警察局","BranchNm":"竹崎分局","Longitude":"120.553925","Latitude":"23.558527","direct":"由北向南","limit":"60"},{"CityName":"嘉義縣","RegionName":"大埔鄉","Address":"曾文水庫道路9.8k","DeptNm":"保七總隊","BranchNm":"保七二大隊","Longitude":"120.53687","Latitude":"23.24949","direct":"西向","limit":"40"},{"CityName":"屏東縣","RegionName":"屏東市","Address":"堤防路段南北雙向","DeptNm":"屏東縣政府警察局","BranchNm":"屏東分局","Longitude":"120.447914","Latitude":"22.673306","direct":"南北雙向","limit":"60"},{"CityName":"屏東縣","RegionName":"屏東市","Address":"189線10.1K大溪路口南下","DeptNm":"屏東縣政府警察局","BranchNm":"屏東分局","Longitude":"120.45391","Latitude":"22.639193","direct":"北向南","limit":"70"},{"CityName":"屏東縣","RegionName":"屏東市","Address":"高屏大橋屏東端南北雙向","DeptNm":"屏東縣政府警察局","BranchNm":"屏東分局","Longitude":"120.45488","Latitude":"22.652136","direct":"南北雙向","limit":"70"},{"CityName":"屏東縣","RegionName":"屏東市","Address":"台1線建國路與和生路口","DeptNm":"屏東縣政府警察局","BranchNm":"屏東分局","Longitude":"120.4657","Latitude":"22.655245","direct":"南向","limit":"70"},{"CityName":"屏東縣","RegionName":"屏東市","Address":"屏東市機場北路500號前","DeptNm":"屏東縣政府警察局","BranchNm":"屏東分局","Longitude":"120.47138","Latitude":"22.686283","direct":"雙向","limit":"40"},{"CityName":"屏東縣","RegionName":"屏東市","Address":"屏東市屏42線4.6K機場北路段","DeptNm":"屏東縣政府警察局","BranchNm":"屏東分局","Longitude":"120.47336","Latitude":"22.67714","direct":"南北雙向","limit":"40"},{"CityName":"屏東縣","RegionName":"屏東市","Address":"台27線62.1K公館外環道南北雙向","DeptNm":"屏東縣政府警察局","BranchNm":"屏東分局","Longitude":"120.482124","Latitude":"22.619041","direct":"南北雙向","limit":"60"},{"CityName":"屏東縣","RegionName":"屏東市","Address":"台27線59.73K復興南路與公成路南北雙向","DeptNm":"屏東縣政府警察局","BranchNm":"屏東分局","Longitude":"120.48557","Latitude":"22.640203","direct":"南北雙向","limit":"70"},{"CityName":"屏東縣","RegionName":"屏東市","Address":"屏東市逢甲路與復興路口","DeptNm":"屏東縣政府警察局","BranchNm":"屏東分局","Longitude":"120.48883","Latitude":"22.67112","direct":"北向","limit":"50"},{"CityName":"屏東縣","RegionName":"屏東市","Address":"屏東市復興北路與逢甲路口","DeptNm":"屏東縣政府警察局","BranchNm":"屏東分局","Longitude":"120.48896","Latitude":"22.671589","direct":"南向","limit":"50"},{"CityName":"屏東縣","RegionName":"屏東市","Address":"屏東市中正路與勝利路口","DeptNm":"屏東縣政府警察局","BranchNm":"屏東分局","Longitude":"120.49087","Latitude":"22.678587","direct":"北向","limit":"50"},{"CityName":"屏東縣","RegionName":"屏東市","Address":"屏東市中正路與勝利路口","DeptNm":"屏東縣政府警察局","BranchNm":"屏東分局","Longitude":"120.49098","Latitude":"22.679312","direct":"南向","limit":"50"},{"CityName":"屏東縣","RegionName":"屏東市","Address":"台3線429.8K忠孝路段南北雙向","DeptNm":"屏東縣政府警察局","BranchNm":"","Longitude":"120.49361","Latitude":"22.695242","direct":"南北雙向","limit":"70"},{"CityName":"屏東縣","RegionName":"屏東市","Address":"屏東市和生路一段與工業六路口南下","DeptNm":"屏東縣政府警察局","BranchNm":"屏東分局","Longitude":"120.497734","Latitude":"22.654818","direct":"北向南","limit":"60"},{"CityName":"屏東縣","RegionName":"屏東市","Address":"屏東市台3線428.15K處","DeptNm":"屏東縣政府警察局","BranchNm":"屏東分局","Longitude":"120.499374","Latitude":"22.70581","direct":"雙向","limit":"70"},{"CityName":"屏東縣","RegionName":"屏東市","Address":"屏東市台3線428.15K處","DeptNm":"屏東縣政府警察局","BranchNm":"屏東分局","Longitude":"120.499374","Latitude":"22.70581","direct":"雙向","limit":"70"},{"CityName":"屏東縣","RegionName":"屏東市","Address":"台3線428.8K海豐果菜市場附近南北雙向","DeptNm":"屏東縣政府警察局","BranchNm":"屏東分局","Longitude":"120.49994","Latitude":"22.70484","direct":"南北雙向","limit":"70"},{"CityName":"屏東縣","RegionName":"屏東市","Address":"屏東市民生路與瑞民路口","DeptNm":"屏東縣政府警察局","BranchNm":"屏東分局","Longitude":"120.50624","Latitude":"22.662788","direct":"雙向","limit":"50"},{"CityName":"屏東縣","RegionName":"屏東市","Address":"屏東市民生東路與安心四橫巷口","DeptNm":"屏東縣政府警察局","BranchNm":"","Longitude":"120.51235","Latitude":"22.65938","direct":"南往北","limit":"50"},{"CityName":"屏東縣","RegionName":"屏東市","Address":"屏東市民生東路與安心四橫巷口","DeptNm":"屏東縣政府警察局","BranchNm":"屏東分局","Longitude":"120.51235","Latitude":"22.65938","direct":"南向北","limit":"50"},{"CityName":"屏東縣","RegionName":"屏東市","Address":"屏東市屏17線10K","DeptNm":"屏東縣政府警察局","BranchNm":"屏縣警局交通隊","Longitude":"120.51959","Latitude":"22.702332","direct":"南北雙向","limit":"60"},{"CityName":"屏東縣","RegionName":"潮州鎮","Address":"台一線417.5K潮州段南北雙向","DeptNm":"屏東縣政府警察局","BranchNm":"潮州分局","Longitude":"120.54044","Latitude":"22.53663","direct":"南北雙向","limit":"70"},{"CityName":"屏東縣","RegionName":"潮州鎮","Address":"屏85線與屏83線路口南下","DeptNm":"屏東縣政府警察局","BranchNm":"潮州分局","Longitude":"120.54082","Latitude":"22.56965","direct":"北向南","limit":"60"},{"CityName":"屏東縣","RegionName":"潮州鎮","Address":"台一線415K南北雙向","DeptNm":"屏東縣政府警察局","BranchNm":"潮州分局","Longitude":"120.55583","Latitude":"22.55167","direct":"南北雙向","limit":"70"},{"CityName":"屏東縣","RegionName":"潮州鎮","Address":"潮州鎮185甲線15.62K處","DeptNm":"屏東縣政府警察局","BranchNm":"","Longitude":"120.58669","Latitude":"22.542807","direct":"雙向","limit":"60"},{"CityName":"屏東縣","RegionName":"東港鎮","Address":"大鵬灣環灣道路3K南北雙向處","DeptNm":"屏東縣政府警察局","BranchNm":"東港分局","Longitude":"120.4703","Latitude":"22.440039","direct":"南北雙向處","limit":"40"},{"CityName":"屏東縣","RegionName":"東港鎮","Address":"中正路三段與新厝路","DeptNm":"屏東縣政府警察局","BranchNm":"東港分局","Longitude":"120.478874","Latitude":"22.491724","direct":"東向西","limit":"60"},{"CityName":"屏東縣","RegionName":"東港鎮","Address":"台17線258.5K東港大鵬灣段南北雙向","DeptNm":"屏東縣政府警察局","BranchNm":"東港分局","Longitude":"120.481926","Latitude":"22.456896","direct":"南北雙向","limit":"70"},{"CityName":"屏東縣","RegionName":"東港鎮","Address":"大鵬灣環灣道路12K處南北雙向","DeptNm":"屏東縣政府警察局","BranchNm":"東港分局","Longitude":"120.49351","Latitude":"22.441694","direct":"南北雙向","limit":"40"},{"CityName":"屏東縣","RegionName":"恆春鎮","Address":"台26線20K省北路二段南北雙向","DeptNm":"屏東縣政府警察局","BranchNm":"恆春分局","Longitude":"120.7301","Latitude":"22.045582","direct":"南北雙向","limit":"70"},{"CityName":"屏東縣","RegionName":"恆春鎮","Address":"台26線22.9K南北雙向","DeptNm":"屏東縣政府警察局","BranchNm":"恆春分局","Longitude":"120.74307","Latitude":"22.024391","direct":"北向南","limit":"60"},{"CityName":"屏東縣","RegionName":"恆春鎮","Address":"台26線28.8公里處南北雙向","DeptNm":"屏東縣政府警察局","BranchNm":"恆春分局","Longitude":"120.75299","Latitude":"21.97737","direct":"南北雙向","limit":"70"},{"CityName":"屏東縣","RegionName":"恆春鎮","Address":"台26線28K核三廠前北上","DeptNm":"屏東縣政府警察局","BranchNm":"恆春分局","Longitude":"120.7586","Latitude":"21.96524","direct":"南向北","limit":"70"},{"CityName":"屏東縣","RegionName":"恆春鎮","Address":"台26線31.11K南灣段","DeptNm":"屏東縣政府警察局","BranchNm":"恆春分局","Longitude":"120.76714","Latitude":"21.958733","direct":"南北雙向","limit":"60"},{"CityName":"屏東縣","RegionName":"萬丹鄉","Address":"萬丹鄉188線16.65K萬順路一段東西雙向","DeptNm":"屏東縣政府警察局","BranchNm":"屏東分局","Longitude":"120.483116","Latitude":"22.568169","direct":"東西雙向","limit":"50"},{"CityName":"屏東縣","RegionName":"萬丹鄉","Address":"萬丹鄉西環路與和平西路口","DeptNm":"屏東縣政府警察局","BranchNm":"屏東分局","Longitude":"120.48716","Latitude":"22.589525","direct":"北向南","limit":"50"},{"CityName":"屏東縣","RegionName":"萬丹鄉","Address":"台27線65.6K丹榮路段南北雙向","DeptNm":"屏東縣政府警察局","BranchNm":"屏東分局","Longitude":"120.49234","Latitude":"22.589718","direct":"南北雙向","limit":"70"},{"CityName":"屏東縣","RegionName":"萬丹鄉","Address":"萬丹鄉187甲線14.67K大學路段南北雙向","DeptNm":"屏東縣政府警察局","BranchNm":"屏東分局","Longitude":"120.49876","Latitude":"22.591784","direct":"南北雙向","limit":"50"},{"CityName":"屏東縣","RegionName":"長治鄉","Address":"屏21線神農西路段南北雙向","DeptNm":"屏東縣政府警察局","BranchNm":"屏東分局","Longitude":"120.53357","Latitude":"22.712818","direct":"南北雙向","limit":"50"},{"CityName":"屏東縣","RegionName":"長治鄉","Address":"屏21線農科路與神農西路口","DeptNm":"屏東縣政府警察局","BranchNm":"屏東分局","Longitude":"120.53376","Latitude":"22.713966","direct":"北向南","limit":"60"},{"CityName":"屏東縣","RegionName":"長治鄉","Address":"屏26線神農德華路口東西雙向","DeptNm":"屏東縣政府警察局","BranchNm":"屏東分局","Longitude":"120.53903","Latitude":"22.716288","direct":"東西雙向","limit":"50"},{"CityName":"屏東縣","RegionName":"長治鄉","Address":"台24線7.98K長治鄉中興路段東西雙向","DeptNm":"屏東縣政府警察局","BranchNm":"屏東分局","Longitude":"120.54267","Latitude":"22.693243","direct":"東西雙向","limit":"60"},{"CityName":"屏東縣","RegionName":"麟洛鄉","Address":"麟洛鄉中山路與民權路口","DeptNm":"屏東縣政府警察局","BranchNm":"","Longitude":"120.5258","Latitude":"22.651611","direct":"南下","limit":"50"},{"CityName":"屏東縣","RegionName":"九如鄉","Address":"台3線427.4K九如機場西側外環道南下","DeptNm":"屏東縣政府警察局","BranchNm":"里港分局","Longitude":"120.48813","Latitude":"22.710312","direct":"北向南","limit":"60"},{"CityName":"屏東縣","RegionName":"九如鄉","Address":"台3線426.3K九如玉水路段南北雙向","DeptNm":"屏東縣政府警察局","BranchNm":"里港分局","Longitude":"120.48843","Latitude":"22.717932","direct":"南北雙向","limit":"70"},{"CityName":"屏東縣","RegionName":"九如鄉","Address":"台三線423.66K九如林森路口南下","DeptNm":"屏東縣政府警察局","BranchNm":"里港分局","Longitude":"120.48953","Latitude":"22.736687","direct":"北向南","limit":"50"},{"CityName":"屏東縣","RegionName":"里港鄉","Address":"台3線里港鄉420.5K處南北雙向","DeptNm":"屏東縣政府警察局","BranchNm":"里港分局","Longitude":"120.49375","Latitude":"22.769915","direct":"南北雙向","limit":"50"},{"CityName":"屏東縣","RegionName":"里港鄉","Address":"里港鄉台3線418.9K鐵店路口南下","DeptNm":"屏東縣政府警察局","BranchNm":"里港分局","Longitude":"120.498055","Latitude":"22.778225","direct":"北向南","limit":"50"},{"CityName":"屏東縣","RegionName":"里港鄉","Address":"里港鄉台3線415.7K北向","DeptNm":"屏東縣政府警察局","BranchNm":"里港分局","Longitude":"120.50132","Latitude":"22.803162","direct":"南往北","limit":"50"},{"CityName":"屏東縣","RegionName":"里港鄉","Address":"里港鄉台3線415.7K南向","DeptNm":"屏東縣政府警察局","BranchNm":"里港分局","Longitude":"120.50132","Latitude":"22.803162","direct":"北往南","limit":"60"},{"CityName":"屏東縣","RegionName":"里港鄉","Address":"台3線414.7K土庫段南北雙向","DeptNm":"屏東縣政府警察局","BranchNm":"里港分局","Longitude":"120.506744","Latitude":"22.816883","direct":"南北雙向","limit":"50"},{"CityName":"屏東縣","RegionName":"鹽埔鄉","Address":"台27線45K鹽埔彭厝路段南北雙向","DeptNm":"屏東縣政府警察局","BranchNm":"里港分局","Longitude":"120.55449","Latitude":"22.74935","direct":"南北雙向","limit":"60"},{"CityName":"屏東縣","RegionName":"鹽埔鄉","Address":"台24線14.87K東西雙向","DeptNm":"屏東縣政府警察局","BranchNm":"屏東分局","Longitude":"120.59917","Latitude":"22.718996","direct":"東西雙向","limit":"70"},{"CityName":"屏東縣","RegionName":"高樹鄉","Address":"高樹鄉185線0.95K處","DeptNm":"屏東縣政府警察局","BranchNm":"里港分局","Longitude":"120.64389","Latitude":"22.871248","direct":"南北雙向","limit":"50"},{"CityName":"屏東縣","RegionName":"萬巒鄉","Address":"萬巒鄉185線39.43K處","DeptNm":"屏東縣政府警察局","BranchNm":"","Longitude":"120.620445","Latitude":"22.59836","direct":"雙向","limit":"60"},{"CityName":"屏東縣","RegionName":"內埔鄉","Address":"台一線405.4K內埔豐田段南北雙向","DeptNm":"屏東縣政府警察局","BranchNm":"內埔分局","Longitude":"120.55209","Latitude":"22.626106","direct":"南北雙向","limit":"70"},{"CityName":"屏東縣","RegionName":"內埔鄉","Address":"台1線408.7公里學人路段","DeptNm":"屏東縣政府警察局","BranchNm":"內埔分局","Longitude":"120.5597","Latitude":"22.599407","direct":"北向南","limit":"50"},{"CityName":"屏東縣","RegionName":"內埔鄉","Address":"台1線408.7公里學人路段","DeptNm":"屏東縣政府警察局","BranchNm":"內埔分局","Longitude":"120.5597","Latitude":"22.599407","direct":"南向北","limit":"50"},{"CityName":"屏東縣","RegionName":"內埔鄉","Address":"內埔屏光路與復興路口","DeptNm":"屏東縣政府警察局","BranchNm":"內埔分局","Longitude":"120.55973","Latitude":"22.608566","direct":"北向南","limit":"70"},{"CityName":"屏東縣","RegionName":"內埔鄉","Address":"屏東縣187丙線17.4K科大路南北雙向","DeptNm":"屏東縣政府警察局","BranchNm":"內埔分局","Longitude":"120.578575","Latitude":"22.644043","direct":"南北雙向","limit":"60"},{"CityName":"屏東縣","RegionName":"竹田鄉","Address":"189線20.1K大湖橋北上","DeptNm":"屏東縣政府警察局","BranchNm":"潮州分局","Longitude":"120.510124","Latitude":"22.579426","direct":"南向北","limit":"70"},{"CityName":"屏東縣","RegionName":"竹田鄉","Address":"台88線20.6K快速道路南下","DeptNm":"屏東縣政府警察局","BranchNm":"潮州分局","Longitude":"120.522575","Latitude":"22.570126","direct":"北向南","limit":"90"},{"CityName":"屏東縣","RegionName":"竹田鄉","Address":"台88線20.6K快速道路北上","DeptNm":"屏東縣政府警察局","BranchNm":"潮州分局","Longitude":"120.52277","Latitude":"22.570349","direct":"南向北","limit":"90"},{"CityName":"屏東縣","RegionName":"竹田鄉","Address":"台一線410.97K水源路段南北雙向","DeptNm":"屏東縣政府警察局","BranchNm":"潮州分局","Longitude":"120.54868","Latitude":"22.582087","direct":"南北雙向","limit":"70"},{"CityName":"屏東縣","RegionName":"新埤鄉","Address":"新埤鄉189線31.85K北向","DeptNm":"屏東縣政府警察局","BranchNm":"潮州分局","Longitude":"120.54937","Latitude":"22.48785","direct":"北向","limit":"50"},{"CityName":"屏東縣","RegionName":"新埤鄉","Address":"新埤鄉189線31.85K南向","DeptNm":"屏東縣政府警察局","BranchNm":"潮州分局","Longitude":"120.54937","Latitude":"22.48785","direct":"南向","limit":"60"},{"CityName":"屏東縣","RegionName":"新埤鄉","Address":"新埤鄉屏112線2.58K處","DeptNm":"屏東縣政府警察局","BranchNm":"潮州分局","Longitude":"120.5725","Latitude":"22.504642","direct":"雙向","limit":"50"},{"CityName":"屏東縣","RegionName":"新埤鄉","Address":"新埤鄉185線50.56K處","DeptNm":"屏東縣政府警察局","BranchNm":"","Longitude":"120.600334","Latitude":"22.512333","direct":"雙向","limit":"50"},{"CityName":"屏東縣","RegionName":"新埤鄉","Address":"新埤鄉185線56.9K處","DeptNm":"屏東縣政府警察局","BranchNm":"屏縣警局交通隊","Longitude":"120.60919","Latitude":"22.46825","direct":"雙向","limit":"60"},{"CityName":"屏東縣","RegionName":"枋寮鄉","Address":"台一線435.6k南北雙向","DeptNm":"屏東縣政府警察局","BranchNm":"枋寮分局","Longitude":"120.59174","Latitude":"22.394459","direct":"北向南","limit":"70"},{"CityName":"屏東縣","RegionName":"枋寮鄉","Address":"枋寮鄉185線62.62K處","DeptNm":"屏東縣政府警察局","BranchNm":"","Longitude":"120.60589","Latitude":"22.42014","direct":"雙向","limit":"60"},{"CityName":"屏東縣","RegionName":"新園鄉","Address":"台17線253.5K與學仁路口北上","DeptNm":"屏東縣政府警察局","BranchNm":"東港分局","Longitude":"120.4554","Latitude":"22.487032","direct":"南向北","limit":"70"},{"CityName":"屏東縣","RegionName":"新園鄉","Address":"台17線東港大橋端","DeptNm":"屏東縣政府警察局","BranchNm":"東港分局","Longitude":"120.45672","Latitude":"22.480722","direct":"南向北","limit":"50"},{"CityName":"屏東縣","RegionName":"新園鄉","Address":"台27線74.3K興安段北向","DeptNm":"屏東縣政府警察局","BranchNm":"東港分局","Longitude":"120.46287","Latitude":"22.524467","direct":"南向北","limit":"60"},{"CityName":"屏東縣","RegionName":"新園鄉","Address":"台27線74.3K興安段南向","DeptNm":"屏東縣政府警察局","BranchNm":"東港分局","Longitude":"120.46287","Latitude":"22.524467","direct":"北向南","limit":"70"},{"CityName":"屏東縣","RegionName":"新園鄉","Address":"台27線71.1K仙公廟南北雙向","DeptNm":"屏東縣政府警察局","BranchNm":"東港分局","Longitude":"120.46594","Latitude":"22.551575","direct":"南北雙向","limit":"60"},{"CityName":"屏東縣","RegionName":"崁頂鄉","Address":"崁頂鄉187線32K南北雙向","DeptNm":"屏東縣政府警察局","BranchNm":"東港分局","Longitude":"120.49575","Latitude":"22.501558","direct":"南北雙向","limit":"50"},{"CityName":"屏東縣","RegionName":"崁頂鄉","Address":"屏75線3.8K與崁頂南二高平面道路路口南下","DeptNm":"屏東縣政府警察局","BranchNm":"東港分局","Longitude":"120.51875","Latitude":"22.541096","direct":"北向南","limit":"50"},{"CityName":"屏東縣","RegionName":"崁頂鄉","Address":"屏75線3.9K與崁頂南二高平面道路路口北上","DeptNm":"屏東縣政府警察局","BranchNm":"東港分局","Longitude":"120.51883","Latitude":"22.54065","direct":"南向北","limit":"50"},{"CityName":"屏東縣","RegionName":"南州鄉","Address":"南州鄉187乙線19.66K處","DeptNm":"屏東縣政府警察局","BranchNm":"東港分局","Longitude":"120.49082","Latitude":"22.485254","direct":"雙向","limit":"60"},{"CityName":"屏東縣","RegionName":"南州鄉","Address":"187乙線南州鄉勝利路段","DeptNm":"屏東縣政府警察局","BranchNm":"東港分局","Longitude":"120.52966","Latitude":"22.48964","direct":"西向東","limit":"50"},{"CityName":"屏東縣","RegionName":"佳冬鄉","Address":"台一線428.9k南北雙向","DeptNm":"屏東縣政府警察局","BranchNm":"枋寮分局","Longitude":"120.55739","Latitude":"22.44863","direct":"南向北","limit":"70"},{"CityName":"屏東縣","RegionName":"佳冬鄉","Address":"台1線429.5K-433K戰備跑道南向(區間測速)","DeptNm":"屏東縣政府警察局","BranchNm":"枋寮分局","Longitude":"120.56299","Latitude":"22.442354","direct":"南向","limit":"70"},{"CityName":"屏東縣","RegionName":"佳冬鄉","Address":"佳和路與佳農路口","DeptNm":"屏東縣政府警察局","BranchNm":"枋寮分局","Longitude":"120.56386","Latitude":"22.409676","direct":"南向北","limit":"60"},{"CityName":"屏東縣","RegionName":"佳冬鄉","Address":"台一線431.07K戰備道南北雙向","DeptNm":"屏東縣政府警察局","BranchNm":"枋寮分局","Longitude":"120.57348","Latitude":"22.431042","direct":"南北雙向","limit":"70"},{"CityName":"屏東縣","RegionName":"佳冬鄉","Address":"台1線433K-429.5K戰備跑道北向(區間測速)","DeptNm":"屏東縣政府警察局","BranchNm":"枋寮分局","Longitude":"120.58444","Latitude":"22.416803","direct":"北向","limit":"70"},{"CityName":"屏東縣","RegionName":"車城鄉","Address":"台26線16.5K車城分駐所前南下","DeptNm":"屏東縣政府警察局","BranchNm":"恆春分局","Longitude":"120.71401","Latitude":"22.072859","direct":"北向南","limit":"50"},{"CityName":"屏東縣","RegionName":"滿州鄉","Address":"滿州鄉屏200線8.2K處","DeptNm":"屏東縣政府警察局","BranchNm":"恆春分局","Longitude":"120.80329","Latitude":"22.008698","direct":"雙向","limit":"60"},{"CityName":"屏東縣","RegionName":"枋山鄉","Address":"台一線444.29K","DeptNm":"屏東縣政府警察局","BranchNm":"屏縣警局交通隊","Longitude":"120.62501","Latitude":"22.326096","direct":"南北雙向","limit":"70"},